Agglomeration_ID,Agglomeration_Name,ISO3,Longitude,Latitude
5199.0,Lagos,NGA,3.251159454376742,6.614950946387391
7098.0,Onitsha,NGA,7.059290541747996,5.8051414183135135
4519.0,Kano,NGA,8.527704003811497,11.985955422869539
3853.0,Ibadan,NGA,3.9114957251175415,7.4033443048208145
133.0,Abuja,NGA,7.449557600602076,9.045413428995541
7357.0,Port Harcourt,NGA,7.04387188516146,4.858527072988054
8806.0,Uyo,NGA,7.815335353821364,5.018379902548671
5538.0,Maiduguri,NGA,13.13718730178594,11.836140117739678
4291.0,Kaduna,NGA,7.441972968791351,10.50272830150206
9.0,Aba,NGA,7.368470644015562,5.188795039941433
1822.0,Benin City,NGA,5.638815226469858,6.324901586805281
4030.0,Ilorin,NGA,4.558610689698013,8.476744733214785
3988.0,Ikorodu,NGA,3.514824625210572,6.695989763202905
6869.0,Nsukka,NGA,7.441647294600725,6.903961432077545
3119.0,Enugu,NGA,7.529803222147365,6.419505103621133
7132.0,Osogbo,NGA,4.51692631994943,7.781099591075994
4226.0,Jos,NGA,8.881667427956234,9.870765770694813
4655.0,Katsina,NGA,7.61342813627797,12.983241903217658
29.0,Abeokuta,NGA,3.3419929283320484,7.1520098008761
8957.0,Warri,NGA,5.7967976598967015,5.5466717276462525
9129.0,Zaria,NGA,7.693791643664123,11.10397007874933
1727.0,Bauchi,NGA,9.826672344956574,10.307805483217779
8156.0,Sokoto,NGA,5.228387812653421,13.030340802842373
427.0,Akure,NGA,5.195273505209868,7.258437466075351
17.0,Abakaliki,NGA,8.073933444201398,6.3739018742472275
3565.0,Gombe,NGA,11.161225770150441,10.283274921114183
201.0,Ado Ekiti,NGA,5.231668176086137,7.62569441484139
6015.0,Minna,NGA,6.536541894545368,9.611341066516331
4178.0,Jalingo,NGA,11.360727642098551,8.91670197653472
4211.0,Jimeta,NGA,12.432829004508449,9.245541468898757
5585.0,Makurdi,NGA,8.55031720921702,7.713096577657474
7247.0,Oyo,NGA,3.9259343557602118,7.8375207454836975
2996.0,Eket,NGA,7.968860135936637,4.6733997236225795
9076.0,Yenagoa,NGA,6.332783431954161,4.939509751254104
2322.0,Calabar,NGA,8.343325151757735,5.006697837163165
3903.0,Ife 1,NGA,4.532899727451706,7.489948117804645
5194.0,Lafia,NGA,8.525677745382518,8.515904777141573
7371.0,Potiskum,NGA,11.082608201766885,11.710141615540003
7032.0,Okenne,NGA,6.213685162330605,7.575550465990088
3965.0,Ijebu Ode,NGA,3.9408539049986038,6.81812883872157
6985.0,Ogbomosho,NGA,4.245078135158084,8.14092458672982
5658.0,Monguno,NGA,13.613847352606527,12.676120392850448
1305.0,Asaba,NGA,6.6732839691194865,6.208167078592049
3445.0,Gboko,NGA,9.001464706126542,7.334155312269605
1874.0,Bida,NGA,6.005722988529915,9.080129327507025
3982.0,Ikirun,NGA,4.68401711253332,7.913558499671986
4019.0,Ilesha,NGA,4.748157700521267,7.629737258033517
3675.0,Gusau,NGA,6.681432611571995,12.17622759005211
3932.0,Igbidu,NGA,8.075352860634776,6.067991950745025
5309.0,Lokoja,NGA,6.707653403249473,7.7977551251925075
7901.0,Shagamu,NGA,3.647917912408113,6.8535781790249874
7093.0,Ondo,NGA,4.837706750901677,7.099398869289631
3293.0,Funtua,NGA,7.316816403098451,11.52249971523907
6974.0,Offa,NGA,4.718714188371328,8.14792987194388
6325.0,Mubi,NGA,13.266892036576383,10.268219403399558
8711.0,Ughelli,NGA,6.013101708767414,5.49758550504582
8786.0,Uromi,NGA,6.246138462252648,6.725790797868073
7683.0,Saki,NGA,3.4095892653670408,8.68518944839579
3700.0,Hadejia,NGA,10.036383220969913,12.457335720447038
4145.0,Iwo,NGA,4.184849915081893,7.635937855869969
249.0,Agbor,NGA,6.184426113512062,6.253131063646453
3981.0,Ikire,NGA,4.185829130953229,7.361561379727249
7782.0,Sapele,NGA,5.6929149730777615,5.87174844783953
1937.0,Birnin Kebbi,NGA,4.214187285206735,12.451373917851752
1426.0,Azare,NGA,10.18990607595651,11.671866599685664
2572.0,Damboa,NGA,12.760974723965473,11.15350220557276
1545.0,Bama,NGA,13.692035897405521,11.525422028012988
4692.0,Keffi,NGA,7.8809651870191475,8.847363806825141
9114.0,Zaki Biam,NGA,9.621530279835191,7.51559356363388
2566.0,Damaturu,NGA,11.964814258340104,11.737927808086651
7122.0,Oron,NGA,8.228818568262541,4.790716086183436
7113.0,Ore,NGA,4.884434320712706,6.753799624247549
3405.0,Gashua,NGA,11.034266128750321,12.880143249114786
3993.0,Ikot Ankan,NGA,7.606919168925332,5.129276896990949
1961.0,Biu,NGA,12.188791488155204,10.611565883290835
2743.0,Dikwa,NGA,13.914387422262857,12.039384039779014
4204.0,Jibiya,NGA,7.239641391184521,13.100230600614983
4107.0,Iseyin,NGA,3.591461246907386,7.973213287495066
1454.0,Badagry,NGA,2.938245116726759,6.429773525108852
3683.0,Gwagwalada,NGA,7.080443323567334,8.935355399368452
3878.0,Idah,NGA,6.781094038508294,7.1394463600579785
3126.0,Epe,NGA,3.9806193073142913,6.620408884553733
7052.0,Okposi,NGA,7.813008454618874,6.072370150949837
1377.0,Auchi,NGA,6.279671173639962,7.066021742332462
1281.0,Argungu,NGA,4.53835045578196,12.741504967090183
4989.0,Kontagora,NGA,5.466729710449922,10.400714931126274
7240.0,Owo,NGA,5.585480280238686,7.20314356363681
9020.0,Wukari,NGA,9.784086914123002,7.8728537578049345
6726.0,Nguru,NGA,10.443276311498868,12.875653881040558
9065.0,Yeghe,NGA,7.371149327679042,4.68016975413834
7153.0,Oturkpo,NGA,8.134224984033606,7.200187333107395
3974.0,Ikare,NGA,5.763947254390582,7.5333842155402335
3346.0,Gambaru,NGA,14.2033011127102,12.369547730251865
9197.0,Zuru,NGA,5.239829071292086,11.43114693147039
3979.0,Ikerre Ekiti,NGA,5.224961652823683,7.495252387163361
5656.0,Mangu,NGA,9.148085835437868,9.48362566237961
2922.0,Dutsin Ma,NGA,7.492096317783859,12.45344513591137
2046.0,Bonny,NGA,7.175144512289456,4.419691691005626
2303.0,Bwari,NGA,7.37684356326752,9.263469252839435
2641.0,Daura,NGA,8.319166814805085,13.033805616309346
1771.0,Bela,NGA,7.296915954998647,4.660287227574222
2918.0,Dutse,NGA,9.347541338314228,11.700231478283918
6684.0,Ngala,NGA,14.181587750643557,12.349228046344031
2598.0,Dandume,NGA,7.126325151879516,11.461629461030194
7083.0,Omoku,NGA,6.656978998080137,5.337766213228097
3971.0,Ika,NGA,7.536418548199914,5.016610695874726
1222.0,Ankpa,NGA,7.631524219427929,7.411417806058986
4006.0,Ila,NGA,4.904814303975242,8.016970683944372
8693.0,Mayo Bani/Uba,NGA,13.214605880850108,10.467059542985409
2977.0,Egume,NGA,7.175212861865703,7.49615112331566
3963.0,Ijebu Igbo,NGA,3.9651343413142657,6.958904223537871
4010.0,Ilaro,NGA,3.0130794257949622,6.891943563640086
3324.0,Gajram,NGA,13.209218451519188,12.486795714121627
3696.0,Gwoza,NGA,13.695789538686853,11.083008378412945
3567.0,Gombi,NGA,12.741982660475335,10.162812611226242
6807.0,Ekparakwa,NGA,7.760161011123948,4.8322332166965545
8710.0,Ugep,NGA,8.077641391100524,5.811378748836001
7035.0,Okitipupa,NGA,4.772574937417149,6.498544440837062
7087.0,Omu Aran,NGA,5.117867605634743,8.1219660187175
7461.0,Rahama,NGA,8.679151639152522,10.422206508588543
5076.0,Kuje,NGA,7.232434614901949,8.885786986639488
3621.0,Gubio,NGA,12.782224723963427,12.493749119139649
4296.0,Kafanchan,NGA,8.301935176388747,9.58459657679575
4193.0,Jega,NGA,4.377950570214464,12.231063128803939
8303.0,Takum,NGA,9.97920096253023,7.248053001387499
6558.0,Nasarawa 1,NGA,7.710141391137282,8.544526896956755
8314.0,Talata Mafara,NGA,6.059478998139873,12.563150828540602
294.0,Ahoada,NGA,6.642910208448309,5.083247327098821
2838.0,Doma,NGA,8.357991467176005,8.39796525312261
429.0,Akwanga,NGA,8.397702875477801,8.908127687466997
225.0,Afikpo,NGA,7.945850007893625,5.879463404919896
10020.0,Zunfur,NGA,13.10727102022713,12.257452822845494
9072.0,Yelwa 1,NGA,4.746770520562712,10.835821191228181
2986.0,Ejigbo,NGA,4.312107708187444,7.901238183052461
3902.0,Ifangni/Idi Iroko [NGA],NGA,2.76556628516636,6.652270218694635
7281.0,Pankshin,NGA,9.415745966130178,9.332539968844324
3417.0,Gaya,NGA,9.001103923307909,11.862224571342127
4977.0,Konduga,NGA,13.403752501678998,11.658669754068491
3663.0,Gumel 1,NGA,9.387612530940684,12.626678412067596
3101.0,Emure Ekiti,NGA,5.440743763399207,7.449935136668135
3459.0,Geidam,NGA,11.92832515139918,12.89245638409274
426.0,Akungba,NGA,5.732313613557194,7.4515268969678035
5127.0,Sarkin Kura,NGA,8.427363613287746,11.772776896924642
7012.0,Ogharefe,NGA,5.673279048702671,5.949966962664154
5215.0,Langtang,NGA,9.800112575806121,9.152799372746
3986.0,Ikom,NGA,8.727010077904229,5.965718816174456
6204.0,Mokwa,NGA,5.060108261942366,9.293973380129605
5152.0,Kwale,NGA,6.423305347905458,5.695239634112689
5621.0,Malumfashi,NGA,7.621073052896324,11.78668913881231
4430.0,Obudu,NGA,9.152353239771298,6.631153452992472
2564.0,Damasak,NGA,12.513966176981635,13.104518349902698
395.0,Akahufu,NGA,8.246592668564222,6.137088394306878
3365.0,Ganye,NGA,12.05331860075971,8.446904025911685
264.0,Agosasa,NGA,2.765895359885703,6.5422865341650605
4656.0,Katsina Ala,NGA,9.293149998177682,7.17176163875459
60.0,Abraka,NGA,6.095771902762505,5.785371694162512
4922.0,Pulka,NGA,13.781292184180954,11.22676499216821
7149.0,Otukpa,NGA,7.640502405468678,7.095452564799428
7063.0,Okwuzi,NGA,6.724256136822548,5.479315058981147
4105.0,Isara,NGA,3.6653022102552444,6.969807598727062
8892.0,Vom Wang,NGA,8.751815994207682,9.686336420754913
4660.0,Kaura Namoda,NGA,6.59137403013799,12.590797730249687
6889.0,Numan,NGA,12.042465238942444,9.452881910497835
3934.0,Igbo Ora,NGA,3.288242609235495,7.437143335323937
9019.0,Wudil,NGA,8.84447601634679,11.797340850412692
8813.0,Vande Ikya,NGA,9.060991623363694,6.795531966682868
6211.0,Molume,NGA,4.939463613635888,5.94779356365011
3665.0,Gummi,NGA,5.123889587644161,12.13853988393372
4898.0,Kishi,NGA,3.8507099004466063,9.081129660336625
4250.0,Kabba,NGA,6.0781693225466,7.825486381310226
1938.0,Birnin Kudu,NGA,9.478278913729119,11.454587006217357
7886.0,Baga ,NGA,13.818276311161318,13.090653881038222
3939.0,Igboho,NGA,3.7556429902538238,8.840927376570251
6706.0,Ngodo,NGA,7.380956509567165,5.984514146526979
4677.0,Kazaure,NGA,8.413149998265721,12.644907178605791
4625.0,Katabu,NGA,7.511385352509791,10.696381969398981
6941.0,Obiaruku,NGA,6.188035656522521,5.8767957141879394
8657.0,Tudun Wada,NGA,8.398752502179466,11.248114198517097
1461.0,Lekki,NGA,3.980427162892996,6.446059271078592
7034.0,Okigwi,NGA,7.33919694672977,5.829700810027434
7519.0,Ringim,NGA,9.159101708452612,12.152384039777774
6512.0,Naka,NGA,8.20742458891951,7.583803319730742
1505.0,Bajoga,NGA,11.432868307822881,10.850494033084022
6876.0,Nto Edino,NGA,7.616978710528785,5.263395357378231
1873.0,Bichi,NGA,8.237067914382065,12.231419370038235
7059.0,Okuku,NGA,4.6612500443429425,8.02701362262577
2967.0,Effium,NGA,8.063016322683927,6.644679606335489
7031.0,Okeiho,NGA,3.3620375268377636,8.038396462179342
3880.0,Idanre,NGA,5.140379486632184,7.097836420780766
6433.0,Mutum Biyu,NGA,10.780398592476299,8.643872575968178
186.0,Adikpo,NGA,9.240389064766298,6.888833957728663
5595.0,Malam Maduri,NGA,9.880584333863114,12.565761131150696
1936.0,Birnin Gwari,NGA,6.541150163183943,10.665269586994091
3689.0,Gwarzo,NGA,7.937620023593169,11.917744845640991
3985.0,Ikole,NGA,5.510188097355345,7.793031321743142
5496.0,Magumeri,NGA,12.828491063828062,12.115252387117106
54.0,Abonnema,NGA,6.775395528346635,4.744434698413153
7982.0,Shinkafi,NGA,6.501310154360797,13.069702997540528
1331.0,Askira,NGA,12.90750588926244,10.654535027017067
3865.0,Ibiagidi,NGA,8.904536368186688,6.683536029395408
4515.0,Kankara,NGA,7.4136969467224425,11.930693563589717
3989.0,Ikot,NGA,7.827037102626471,4.7300844018681
5988.0,Michika,NGA,13.387229204189612,10.61518281091468
4946.0,Koko 1,NGA,4.517502502567615,11.431156526557523
7152.0,Otuocha,NGA,6.869552878980286,6.333899778334785
8384.0,Tarau,NGA,8.200101708548544,11.459741182642063
4473.0,Kamba,NGA,3.659332212798346,11.854570375184615
377.0,Aiyetoro,NGA,3.0311708033698075,7.240709903505733
3081.0,Elele,NGA,6.814541976022112,5.099363154301163
3479.0,Gezawa,NGA,8.75319694658842,12.097159080829224
4085.0,Irele,NGA,4.869471456780752,6.4930628446897805
7245.0,Oye Ekiti,NGA,5.341334201831531,7.800031798924977
10056.0,Ikot Owobo,NGA,7.599196946703708,4.807082452549855
1391.0,Awgu,NGA,7.479716554559015,6.0623602303149715
9168.0,Zing,NGA,11.750613612955592,8.98998523028574
2571.0,Danbatta,NGA,8.514446946612416,12.432638008029214
5120.0,Kumo,NGA,11.207387422533596,10.048860230275153
8165.0,Song,NGA,12.622235407740051,9.822296127713136
4251.0,Ungwan Abdullah Maifata,NGA,5.403795237521688,10.194432879846158
6725.0,Ngurore,NGA,12.233196946240428,9.29339681564863
6777.0,Damare,NGA,12.477715464734622,9.310860230282481
1670.0,Barakin Babele,NGA,8.975037224343739,10.034478285830666
236.0,Agaie,NGA,6.3243278992123155,9.005098325523598
7088.0,Omuo Ekiti,NGA,5.730815994509748,7.750071870509844
8706.0,Ugba,NGA,9.351553754040323,7.508756943915508
4404.0,Kagoro,NGA,8.386729284933452,9.605332867095276
1452.0,Babura,NGA,9.01347472434025,12.771341711729248
7011.0,Oja Odan,NGA,2.852189195240615,6.903258163123039
1724.0,Batsari,NGA,7.25202047615042,12.759271994953863
7469.0,Rano,NGA,8.57995620586499,11.56115652655629
8614.0,Tsafe,NGA,6.918644101243479,11.959982181475596
717.0,Aliade,NGA,8.477665031722426,7.299292854416092
7616.0,Sabon Wuse,NGA,7.243196946739538,9.311914493848393
281.0,Agwa,NGA,6.899142220405704,4.983268190524795
8584.0,Toto-Owu,NGA,3.175581053106553,6.556493784393848
6954.0,Obudi,NGA,6.889908057886043,5.553838008097786
148.0,Achi 1,NGA,7.3401211891539875,6.151739018192865
8961.0,Wase,NGA,9.961133454404232,9.09382848425283
2626.0,Darazo,NGA,10.411824397403038,10.998781798893107
6938.0,Ipu/Ozaa/Asa,NGA,7.24555296768173,4.924423930151731
2642.0,Dawakin Kudu,NGA,8.58845335686135,11.838898691795738
4463.0,Kaltungo,NGA,11.306254797573013,9.81053516140717
7274.0,Pambeguwa,NGA,8.27365671675146,10.683021149809045
7965.0,Shendam,NGA,9.53493364118818,8.876680958578108
8703.0,Udi,NGA,7.373282857379416,6.290427240622026
393.0,Akabuka,NGA,6.647061681098642,5.230802259308769
5175.0,Kwoi,NGA,8.005641391107751,9.443360230281133
3890.0,Ido Ekiti,NGA,5.177530280279378,7.856119489556203
7067.0,Oleh,NGA,6.197812331459318,5.440244845705818
6763.0,Ningi,NGA,9.570588250854607,11.078700809974892
8704.0,Uduma,NGA,7.61224771932962,6.099915417952566
2365.0,Chanchaga,NGA,6.5848309337335085,9.545840622437117
5290.0,Lissam,NGA,10.053088250806413,7.191454433202306
5562.0,Makarfi,NGA,7.884373417263592,11.378585720457906
2233.0,Buniyadi,NGA,12.005150969251817,11.27336597738919
4188.0,Jauro,NGA,11.110443323164379,8.45319356362446
3463.0,Gembu,NGA,11.252846069145564,6.722521049021833
3940.0,Igbokoda,NGA,4.784244566033054,6.371050706502347
8701.0,Uburu,NGA,7.761061024357539,6.034698418017538
3966.0,Ijero Ekiti,NGA,5.068673137433125,7.811705468392536
7005.0,Ogwashi Uku,NGA,6.530050879395094,6.18766921907776
7250.0,Ozoro,NGA,6.22970361350764,5.54659356365354
1533.0,Bali,NGA,10.967499976670089,7.852375381812301
3245.0,Fili,NGA,4.466893916714159,8.39455719998858
5461.0,Mafa,NGA,13.59694694610415,11.922360230256354
9181.0,Zonkwa,NGA,8.30143224075133,9.777278530931383
8141.0,Soba,NGA,8.059288900680997,10.982676322219714
3681.0,Gwadainya,NGA,8.552085835497504,8.402267637699067
4110.0,Ishiagu,NGA,7.561690097392568,5.953216394699677
7041.0,Okopedi,NGA,8.119149327604285,4.8338126112795115
1668.0,Barabarobara,NGA,7.228217522872551,4.738234715924982
1511.0,Bakori,NGA,7.425446946721247,11.560443563593264
7514.0,Rijau,NGA,5.26122724996795,11.10486023026464
2988.0,Ejule,NGA,7.110847740403511,7.376098325540009
6653.0,Okpogho,NGA,7.2989261134005075,6.440224813644555
4219.0,Jogana,NGA,8.70513243046436,12.027225821653158
1823.0,Benisheikh,NGA,12.497006470023734,11.808193563590894
6074.0,Misau,NGA,10.465895359115548,11.310309965712317
1292.0,Arochukwu,NGA,7.897186447986354,5.399532146332021
6670.0,New Bussa,NGA,4.515065633881007,9.879481442398093
3999.0,Ikot Offiong,NGA,8.422512619910739,4.921239921275802
3343.0,Gamawa,NGA,10.535999976713283,12.132739018133002
7114.0,Orerokpe,NGA,5.905174968851304,5.648486603945567
4288.0,Kado,NGA,9.733304473372183,7.647763456105507
5820.0,Maya Belwa,NGA,12.064991818052189,9.053279033703845
4412.0,Kaiama 1,NGA,3.938637560096752,9.604477088517006
3137.0,Eruwa,NGA,3.4349029838658107,7.540765742111267
7007.0,Ohafia,NGA,7.830304789817945,5.638291602868324
8780.0,Ungwan Shehu,NGA,7.4613913911620715,11.252638008040718
2899.0,Dukku ,NGA,10.772579662435936,10.820786156193307
35.0,Abiriba,NGA,7.734573758284529,5.704497911478057
9025.0,Wurio,NGA,10.51798327119834,8.392381597812978
4103.0,Isanlu,NGA,5.828368286444825,8.276916305059238
7016.0,Oka Akoko,NGA,5.801658485345287,7.4586551020959035
737.0,Alizaga,NGA,8.537229204674565,8.708301090503678
3688.0,Gwaram ,NGA,9.88512002339833,11.276911512313884
3952.0,Ihalav,NGA,8.590315590672539,7.912374354590228
9027.0,Wurno,NGA,5.423519527566582,13.286150552823347
7622.0,Sabuwa,NGA,7.123196946751493,11.175584867945055
1291.0,Aro,NGA,7.430151679231035,5.836629777642339
4172.0,Jaji ,NGA,7.556345094856307,10.81745282286001
1898.0,Billiri,NGA,11.219392598515817,9.887758781001525
3447.0,Gbongan,NGA,4.3536984219548,7.476984124106223
2414.0,Chibok,NGA,12.84708583506803,10.871082452489162
4023.0,Illela,NGA,5.298530280267274,13.727680743058785
6687.0,Ngambu,NGA,12.262826575867043,11.762638008035683
8763.0,Umuagu,NGA,6.9477039890226155,5.329977601214285
5128.0,Kaura Munjo,NGA,5.1434393711919295,12.837102654489533
4064.0,Inisa,NGA,4.647032563437409,7.980750641254679
4094.0,Isa,NGA,6.401408328937486,13.199738279024201
1304.0,Asa/Awara,NGA,6.771412909227972,5.3685222021528265
7936.0,Share,NGA,4.975564096724644,8.823942355891255
4181.0,Jamaare,NGA,9.927482660756764,11.669622135020916
7013.0,Oju,NGA,8.421254341765364,6.862873475340001
5196.0,Lafiagi,NGA,5.409135644240951,8.84608628392708
4163.0,Izom/Mararaba,NGA,6.997363613430673,9.267724813616283
5218.0,Lapai,NGA,6.573353196806497,9.049443563618519
1151.0,Amassama,NGA,6.1046784283349815,4.972884921683923
2973.0,Egbolom,NGA,6.64688489006155,4.852590726780815
7118.0,Oro Esie Iludin,NGA,4.88702208358721,8.226526896960031
2604.0,Danja 1,NGA,7.5634350419457,11.375693563595096
4075.0,Iperu,NGA,3.6650916839394614,6.914965493464328
3919.0,Igarra,NGA,6.121163849924976,7.280344863872409
2238.0,Bunza,NGA,4.010280280396118,12.085554674699218
2746.0,Dilpurtu,NGA,12.9238759585168,10.228440477186783
1502.0,Baissa,NGA,10.624184600722467,7.231650353760011
1220.0,Anka,NGA,5.930783153767263,12.10911310381788
3992.0,Ikot Akpaete,NGA,7.8470976558987635,4.621775123946269
8948.0,Wannune,NGA,8.88496401484847,7.565301997368262
2203.0,Bula Chirabe/Banki [NGA],NGA,14.150085834937702,11.25597134137417
2372.0,Charanchi,NGA,7.729573758285135,12.66862834619083
4203.0,Jesse,NGA,5.747415053884958,5.891958995748723
10118.0,Obajana Ciment Factory,NGA,6.430263613487381,7.9241268969629965
9124.0,Zango,NGA,8.484113613282085,13.055110230244928
8221.0,Sukuku,NGA,7.037942709471796,8.822148365880572
4516.0,Kankia,NGA,7.82972472445852,12.547915785805548
6999.0,Oguma 1,NGA,8.763125261999628,9.945792129917596
3389.0,Garko,NGA,8.80278027991689,11.648332452481329
725.0,Aliero,NGA,4.468435042255023,12.291526896919438
5131.0,Kurgwi,NGA,9.29584062469518,8.781297011897045
2570.0,Damban,NGA,10.710480897010083,11.678563933962586
5137.0,Kuta,NGA,6.709238613459582,9.867846341387995
4281.0,Kachia,NGA,7.952205955677612,9.877833203249782
1149.0,Amaseri,NGA,7.884471456479364,5.914566112669414
2970.0,Egbe Oke,NGA,5.509221043298441,8.219880310614855
6537.0,Namu,NGA,9.092196946554662,8.686860230288817
1435.0,Azuwa,NGA,6.1674863525319426,6.126410617911168
3863.0,Ibi,NGA,9.750386488972532,8.177278530947502
6983.0,Ogboja,NGA,8.787271020659182,6.613517637716805
4398.0,Kagara,NGA,6.255122872764273,10.185675045088612
7709.0,Samamiya,NGA,9.65306361316526,11.34912689692867
4043.0,Imeko,NGA,2.8366292904145194,7.442814025680662
10148.0,Gwada,NGA,6.810267653853539,9.75273901815661
7878.0,Serti,NGA,11.358941627178966,7.505143918243869
6842.0,Ashaka/Jalingo,NGA,11.477085835204953,10.919526896933093
2691.0,Dengi,NGA,9.961196946467773,9.365452822874518
5873.0,Mbogwo,NGA,7.501643916410637,6.105958715162861
2962.0,Edun,NGA,5.5043734175015135,9.749860230278044
4076.0,Ipetu Ijesha,NGA,4.8919912732157735,7.4664914359747625
2012.0,Bokkos,NGA,8.990469673837593,9.2962743716969
10152.0,Gindiri Town ,NGA,9.203196946543484,9.58025238714247
3973.0,Ikara,NGA,8.223196946641513,11.172479277882845
3685.0,Gwandu,NGA,4.639553536147192,12.504860230250523
2547.0,Dakingari,NGA,4.06083583594663,11.648540785814632
8297.0,Takai,NGA,9.105558057664334,11.568471341371039
3964.0,Ijebu Ijesha,NGA,4.817118515609538,7.673683759710827
3931.0,Igbeti,NGA,4.134030280383771,8.748286156213993
10161.0,Ndiya,NGA,7.917812331287305,4.781307116774954
748.0,Alkaleri,NGA,10.332826576060125,10.266804674717322
7279.0,Pandogari,NGA,6.399122872749812,10.410909612987547
15.0,Abaji,NGA,6.947996946769213,8.472326896957535
3842.0,Hunkuyi,NGA,7.6492386133655925,11.267568563596152
7151.0,Otun Ekiti,NGA,5.120520179274938,7.987031947467313
6841.0,Sabon Rijiya,NGA,5.3868080580362285,9.960971341387255
298.0,Aidu,NGA,7.331808057841938,12.26083245247528
5984.0,Miango,NGA,8.688954522352406,9.853042048458843
7046.0,Okpella,NGA,6.3445064706387875,7.277788801731387
3386.0,Garin Madsam,NGA,11.226530279674579,11.288193563596147
4451.0,Kalin,NGA,7.07023398379384,9.524675045095188
3007.0,Eku,NGA,5.986606908550941,5.736277854839323
6660.0,Nembe,NGA,6.403330280156784,4.535526896996896
3619.0,Guai,NGA,3.291958851896558,9.626003087422056
7042.0,Okpakeke,NGA,7.641813967976105,6.872484343782085
5438.0,Madagali,NGA,13.623282416186878,10.891441426847834
4049.0,Imota,NGA,3.6705229544227937,6.662149607598357
7106.0,Ikpa Ibekwe,NGA,7.569771020780675,4.5740268969964095
7535.0,Rogo,NGA,7.825081004652323,11.550367476636985
2776.0,Dirindaji,NGA,5.471252502472303,11.24708245248528
4014.0,Ile Igbo,NGA,4.244696947039321,7.625360230299471
10175.0,Aja Obiakpa,NGA,7.668517459517412,4.8699884354550775
2190.0,Buguma,NGA,6.858863613444357,4.7380268969949215
8228.0,Sumaila,NGA,8.954268375139828,11.53224118264112
4071.0,Inyi-Umuom,NGA,7.293803007340575,6.118092553546804
6663.0,Nenwe,NGA,7.525770786373673,6.138446728204502
3659.0,Gulma,NGA,4.356530280361478,12.648471341360208
3942.0,Igede Ekiti,NGA,5.137299511052721,7.665065358503986
9058.0,Yankara,NGA,7.0769469467561565,11.783610230257969
5660.0,Mani,NGA,7.872427715907461,12.855116640503644
6984.0,Ogboloko,NGA,7.800480897301187,7.153317020427456
1513.0,Bakura,NGA,5.872472309195411,12.716164578074542
7702.0,Salka,NGA,4.968068741838836,10.31825766616986
3335.0,Gali,NGA,10.299863613100522,10.776726896934493
138.0,Abuochicie,NGA,8.976625517994911,6.759876103323856
398.0,Akamkpa,NGA,8.34759410974945,5.317909875712731
4015.0,Ile Oluji,NGA,4.8698353650559465,7.206244411094465
7579.0,Rumirigo,NGA,13.031609644573416,10.601368166777334
4567.0,Karaye,NGA,8.016391391106618,11.780693563591006
9037.0,Yabo,NGA,5.009978556158185,12.72440046013335
9195.0,Zurmi,NGA,6.781432240903352,12.781526896914384
4170.0,Jahun,NGA,9.626339803644088,12.076574515969055
4190.0,Jebba,NGA,4.824784248568646,9.119860230284427
9073.0,Yelwa 2,NGA,9.660595320481482,8.809819579881104
4127.0,Issele Uku,NGA,6.482908485276896,6.31389869185095
2969.0,Effon,NGA,4.926093121834631,7.6767727986048895
1144.0,Amaokwe,NGA,7.666468551635648,5.749736773528005
3970.0,Ayetoro Iju & Ifa Ogbolu,NGA,5.252694663833547,7.3786501846397465
6959.0,Ode Aye ,NGA,4.7421784284710675,6.585971341420971
8951.0,Warawa,NGA,8.70370976710629,11.866398691795382
7241.0,Owode,NGA,3.5018333107499875,6.94993598788202
5758.0,Mashi,NGA,7.942641391114045,12.979675045060603
3957.0,Ihubogo,NGA,6.66455111346405,5.1816310636571785
10208.0,Obiogo,NGA,7.195879873573171,5.8135594173094605
10210.0,Arafu,NGA,9.241700347900126,7.817241182678324
8939.0,Wamba,NGA,8.602287855694485,8.9495571999832
4002.0,Ikpayongo,NGA,8.600017459424341,7.57070638414613
3542.0,Glogbo/Seme [NGA],NGA,2.7444176044662907,6.386644267870339
6961.0,Ode Omu,NGA,4.394946947024339,7.541193563633447
3855.0,Ibaka,NGA,8.306363613299963,4.648360230329125
7636.0,Saho Rami,NGA,5.411628319471693,9.889370034198224
7293.0,Pategi,NGA,5.7581642671494535,8.721657615909368
6977.0,Ofugu Inye,NGA,7.62136767840893,7.562217953877304
2980.0,Eha Amufu,NGA,7.7748636133529265,6.657232025180733
10218.0,Mahuta 2,NGA,7.270451848697517,11.445644543986583
8572.0,Tor Donga,NGA,9.637261987150518,7.229169173392699
5726.0,Mariga ,NGA,6.01889139130642,10.135276896940955
3002.0,Ekpene Ukim,NGA,8.034829599721602,4.92037043440804
4000.0,Ikot Ubo,NGA,8.015436529995617,4.718037313661979
2282.0,Buter,NGA,9.497792906109948,6.899961240407437
6979.0,Ogbaniko,NGA,8.779542328112015,6.718555009424905
7610.0,Sabon Birni 1,NGA,6.317387423022561,13.559622135002082
7047.0,Okpo,NGA,7.57369959220894,7.202743828187288
4951.0,Kokori,NGA,6.032678428342088,5.635749119208075
2587.0,Dan Hassan,NGA,8.524030279944752,11.790693563591084
4013.0,Ilawe Ekiti,NGA,5.105154618911028,7.593008378447752
2589.0,Dansadau,NGA,6.495233983851303,11.301712082114216
3495.0,Giade,NGA,10.199457109045566,11.38949437660313
6992.0,Ogoja,NGA,8.800517208021635,6.65584062246592
10226.0,Ikot Nakanda,NGA,8.504158485074854,4.840757666224546
1512.0,Bakumi,NGA,7.51045620597207,7.857897267333997
9074.0,Yelwa 3,NGA,9.94435636675927,7.502976172329611
10228.0,Itabono l,NGA,7.670096946696919,6.9246602303063725
284.0,Ahaba,NGA,7.536295538259622,5.728944737360544
1986.0,Bodo,NGA,7.272155280069955,4.625797730329448
8770.0,Umunede,NGA,6.319514776289344,6.262069532638564
4582.0,Karshi 1,NGA,7.57745620596529,8.82541578584277
10230.0,Kadaura,NGA,6.997363613430629,11.04708245248728
8808.0,Uzebba,NGA,5.904284666171589,6.995702335568793
4280.0,Kachako,NGA,9.2627207560614,11.539939595339757
6071.0,Miringa,NGA,12.144308057360512,10.731773810515131
376.0,Aiyete,NGA,3.2223636138082092,7.546678412117954
4576.0,Karim Lamido,NGA,11.192709141466372,9.319413075810715
8714.0,Ugwalawo,NGA,6.927319753788855,7.240825142583967
10240.0,Dan Musa,NGA,7.261863613404131,12.236193563586601
5195.0,Lafia_2,NGA,11.819196946281906,9.651193563612448
5263.0,Lessel,NGA,9.023863613228214,7.127578179022398
6014.0,Minjibir,NGA,8.659063613264461,12.172726896920617
7262.0,Paiko,NGA,6.633835244672836,9.441810584891092
1483.0,Bagudo,NGA,4.221768375613058,11.40382848422983
4079.0,Ipokia,NGA,2.839177339336713,6.507752387173199
7001.0,Ogume,NGA,6.332752502386067,5.754712082169934
3204.0,Faskari,NGA,7.030196946760847,11.720082452480677
5168.0,Kwaya,NGA,11.841196946279695,10.501660230270506
1792.0,Bena,NGA,5.941755505428227,11.291256626658997
7037.0,Oko Ita,NGA,7.890851267662417,5.1859713414348345
5839.0,Mbacub,NGA,9.127204883058893,6.6831935636420745
4147.0,Iworoko,NGA,5.258085835826852,7.722860230298281
8361.0,Tanglang,NGA,11.178712097861162,9.83728447270157
2258.0,Buruku 2,NGA,7.236113613406777,10.616735230269255
5728.0,Marmara,NGA,8.576530279939544,11.121783307187219
1473.0,Baga ,NGA,13.862085834966514,13.115045415429616
10246.0,Joo Tar,NGA,9.757085835376927,7.759526896964663
1244.0,Anyigba,NGA,7.254042717882494,7.471725901942776
3478.0,Getso,NGA,7.972684126153668,11.876655102051824
5537.0,Maiadua,NGA,8.230205493649274,13.17947561485918
4927.0,Kiyawa ,NGA,9.601996946503686,11.783126896924456
3177.0,Eziama/Okpuala,NGA,7.247550688235417,5.305472475220416
4882.0,Kiru,NGA,8.136833310286468,11.70198144237985
4623.0,Kasuwan Magani,NGA,7.714431514593676,10.401033069777794
6704.0,Ngo,NGA,7.408687142801372,4.480644544056362
7048.0,Okpoga,NGA,7.795360067251728,7.048548173567449
8616.0,Kofar Arewa,NGA,8.643921584280621,11.794570375184959
5077.0,Kukawa,NGA,13.569688174177008,12.925561984632079
3958.0,Ihugh,NGA,9.026459357908722,7.008335407610537
5743.0,Maru,NGA,6.404094382720882,12.329603819995835
2518.0,Dabai,NGA,7.638325151828201,11.372808948210519
4447.0,Kalgo,NGA,4.201075734922515,12.336476391868455
4509.0,Kangiwa,NGA,3.818530280415246,12.554443563583208
10276.0,Kudan,NGA,7.7305778990718,11.305574515976751
10277.0,Kaddamari,NGA,13.243196946139516,11.929860230256372
3360.0,Gandi,NGA,5.740339804032608,12.96509832548413
8268.0,Tafawa Balewa,NGA,9.546286377403465,9.762339905074759
7085.0,Omor,NGA,6.955149327720617,6.5107173731677195
2236.0,Bunkure,NGA,8.538673137086166,11.699145944544474
2643.0,Dawaki ,NGA,8.33367313710669,12.108788801682927
9047.0,Yakum,NGA,8.121715465170169,5.882514551304424
7517.0,Rimi 1,NGA,7.707104992670093,12.847503908407967
1746.0,Bebeji,NGA,8.262085835526497,11.667241182639897
6676.0,New Wara,NGA,4.627730280334467,10.226860230273374
5769.0,Maska,NGA,7.3274826610167425,11.325098325500507
4171.0,Jahuna,NGA,10.110443323264334,8.12891820130884
3435.0,Gbajimba,NGA,8.85834846172947,7.825062250499228
10296.0,Elele Alimini,NGA,6.730588251138657,5.056599360759746
2637.0,Dass,NGA,9.523063613178273,10.004460230275747
5231.0,Lassa,NGA,13.269246328852994,10.68189726730584
2826.0,Dogon Yaro,NGA,8.800785599066073,10.241455974954134
10303.0,Ilara ,NGA,2.757244566235664,7.408669754111017
6497.0,Nafuchi,NGA,6.541040084064598,12.371526896918553
7520.0,Rinjim Gaini,NGA,9.126359339713586,10.071868777283452
1689.0,Barkin Ladi,NGA,8.895419168796467,9.547082452502416
3886.0,Idi Emi,NGA,2.9999191693860063,7.405915785857124
7061.0,Okuta,NGA,3.2041910991901577,9.215620464201471
7148.0,Otujeremi/Otokutu,NGA,5.8738740302096835,5.4444435636544855
5475.0,Magare,NGA,6.825488613447872,12.632151896916046
3991.0,Ukpon,NGA,7.663849120610291,4.610657331778643
3679.0,Guyuk,NGA,11.939243457897968,9.911526896943222
6818.0,Nkwo-Nando,NGA,6.932729110513137,6.326556136745177
1195.0,Tunga maje,NGA,7.1951161386635505,9.058395583820433
5613.0,Mallam Daya,NGA,11.066123775625487,9.356730148981061
3657.0,Gulak,NGA,13.4515709298585,10.802827709942404
8430.0,Tegina,NGA,6.179337297722935,10.073105844310021
5124.0,Kunya Centre,NGA,8.53057789899173,12.22152689692001
6412.0,Musawa,NGA,7.673058057807609,12.130276896920975
4201.0,Jere,NGA,7.430930280054261,9.56712689694657
10321.0,Bomu,NGA,7.361946946727642,4.639443563662664
2848.0,Donga,NGA,10.051398004659756,7.719145944584173
7613.0,Sabon Gari 2,NGA,10.99279694636453,7.9853935636289375
391.0,Aka Ese,NGA,7.678530280029316,5.911907849364109
8681.0,Tungo,NGA,12.045590108652501,8.122039717473784
10325.0,Kwa Ibo,NGA,8.005608294180949,4.549044627493357
10326.0,Obunagha,NGA,6.324936077266125,5.040367476702044
3328.0,Galadi,NGA,6.42319694682139,13.055812611197503
3918.0,Igangan,NGA,3.1821552804789803,7.6798602302988614
3188.0,Faku,NGA,4.63717842848155,9.847267637684514
10329.0,Durbunde,NGA,9.22531815866248,11.538496593896678
1135.0,Amachara,NGA,8.127855066308982,6.164603820057675
6673.0,New Marte,NGA,13.86653027941052,12.24799748515497
6476.0,Makera,NGA,5.394184601245301,9.683255292007013
4168.0,Jada,NGA,12.157363612914793,8.754339396954753
2972.0,Egbo Ide,NGA,5.797467780217405,5.3702768969886
4018.0,Ilero,NGA,3.349083471951613,8.089541081358563
2995.0,Afuda/Eguere,NGA,6.243293100685724,6.612520486719743
7684.0,Sakpenwa,NGA,7.30053028006712,4.7322768969949
262.0,Ago Amadu,NGA,3.6359653086820813,8.624860230289382
4038.0,Ilutitun,NGA,4.641161859280503,6.555140932064281
4194.0,Jemaa,NGA,8.388505588600255,9.471033069787072
3924.0,Igbara Odo,NGA,5.0636731374336135,7.503241182681417
392.0,Akana/Ogu,NGA,6.251479775121421,4.9116279070943225
4570.0,Karfi Ruga,NGA,8.49597472439195,11.820554674701762
1523.0,Balala,NGA,12.876530279509494,10.774622135029812
7505.0,Ribah,NGA,5.481863613582165,11.398415785817056
4164.0,Izombe,NGA,6.858241991823012,5.632878248337273
5472.0,Magami,NGA,6.59153028013801,11.721860230258354
8333.0,Tambawal,NGA,4.647363613665767,12.402744845636084
10360.0,Kinsha,NGA,10.691808057505702,12.317360230252163
447.0,Alade,NGA,5.101824397934095,7.145448465598367
5535.0,Mahuta 1,NGA,4.984001544666696,11.553480919915199
8503.0,Tignon,NGA,11.692363612961232,9.550360230279994
7795.0,Sarki Power,NGA,7.127540381094517,10.016880432295787
5217.0,Kuri,NGA,11.44594204435854,10.154860230274085
9080.0,Yimirshika,NGA,12.245722198764431,10.526880432290431
4634.0,Katari,NGA,7.455745966326116,9.697017093023815
10366.0,Amoncha,NGA,7.927902829023978,5.798585720513661
10369.0,Karshi 2,NGA,7.657684126185237,8.890373050799523
2605.0,Dankama,NGA,7.797085835573051,13.30504541542759
9192.0,Zuguma,NGA,4.967713075999259,9.456258079743508
1652.0,Bantaje,NGA,10.064387422647963,8.098431658866103
6967.0,Odogbolu,NGA,3.7694862552630024,6.84259607936392
6685.0,Ngalda,NGA,11.374238612993121,11.10756856359794
3247.0,Filiya,NGA,11.095895359052522,9.581764992184505
10376.0,Garki,NGA,9.187030279878186,12.432693563584372
4299.0,Kafin Hausa,NGA,9.909196946472925,12.237660230253095
5540.0,Mayo Nguli,NGA,13.183921583826502,10.061961679550347
2919.0,Dutsen Wai,NGA,8.201715465162161,10.850230600637424
10381.0,Elebele,NGA,6.348581562213577,4.849860230327035
4209.0,Jikamshi,NGA,7.770451848647523,12.168389642018603
3009.0,Ekumtak,NGA,8.885057411691596,6.5416044163567255
3925.0,Owena Ijesha,NGA,5.007502502518629,7.404721341412645
8547.0,Tofa,NGA,8.273589103499148,12.057409249862886
2231.0,Bungudu,NGA,6.556432240925889,12.27054650476285
6699.0,Ngelzarma,NGA,11.617314593360911,11.684664151827441
7026.0,Oke Odan,NGA,2.8794983170385353,6.697919591039042
10387.0,Buni Gari,NGA,12.028613612927657,11.202360230263464
5999.0,Miga 1,NGA,9.829228692512608,10.895336420742792
1939.0,Birniwa,NGA,10.238045431288477,12.789405684793149
10394.0,Kwinte,NGA,8.157863613314705,10.799860230267571
45.0,Abogwa,NGA,3.7090302804261968,6.641451139400068
7121.0,Orogun,NGA,6.211743955389615,5.676655102113672
378.0,Aiyetoro Gbede,NGA,5.990255770394201,7.9935857204919785
8960.0,Wasagu,NGA,5.805469674155913,11.372132957534555
5165.0,Kwararfa,NGA,10.359030279761287,8.242267637700605
10402.0,Otuoke,NGA,6.315353809577623,4.793585720523832
4142.0,Iware,NGA,11.107384980541196,8.828108093535274
4093.0,Ogbagi,NGA,5.7056969468931795,7.568526896966549
3374.0,Garaku,NGA,8.130477648405225,8.848632160111709
4399.0,Kagarko,NGA,7.69334187423079,9.491092114338665
8955.0,Warji,NGA,9.750002502044401,11.175693563597175
3749.0,Hardawa,NGA,10.467070820290829,11.422247617648633
4784.0,Kibiya,NGA,8.658284665896199,11.528018124997114
9030.0,Wushishi,NGA,6.078196946855974,9.725825142559005
10409.0,Rurum,NGA,8.482530279948923,11.41819356359474
10411.0,Mgbagbu Owa,NGA,7.17865990970924,6.3875454154969225
10416.0,Tsangaya,NGA,9.218196946541847,11.614860230259163
2560.0,Damagum,NGA,11.336863612996705,11.67663800803669
6962.0,Oderiga,NGA,8.260339803780544,5.952955468411275
5793.0,Matazu,NGA,7.676530280029499,12.236889215760478
10420.0,Vaase,NGA,9.553776656653419,7.883410954934494
8699.0,Ubuluku,NGA,6.4487969468188115,6.234593563646506
5843.0,Mbak,NGA,7.988752502220413,5.153749119212799
3929.0,Igbere,NGA,7.649673137175014,5.708384039842386
1186.0,Amoso,NGA,7.84666361334596,5.809526896984256
6230.0,Mopa,NGA,5.89270311971408,8.12675323440967
3390.0,Garo,NGA,8.104478997935367,11.956142281538112
10424.0,Mararabar Akunza,NGA,8.585477648359685,8.469597072396192
1269.0,Aramoko Ekiti,NGA,5.0421969469595185,7.705260230298534
4666.0,Kaya,NGA,7.2408159943587584,11.25319356359641
1114.0,Alyi,NGA,7.602700492802994,5.7284772515948665
5075.0,Kujama,NGA,7.633966177469761,10.473492708903324
7612.0,Sabon Birnin Yero,NGA,7.519079299653099,10.767801406738508
10435.0,Ndi Elu,NGA,7.764238613354002,5.785763008095652
2157.0,Brass,NGA,6.246701220343405,4.31058672605898
8620.0,Tse Agberagba,NGA,8.665919168819466,7.075804674749069
1417.0,Ayadeghe,NGA,8.037128570591795,5.157253392717248
1173.0,Ambursa,NGA,4.337564763121974,12.506354483124062
10443.0,Bilbil,NGA,6.988348461916453,11.811526896924256
7049.0,Okpoma,NGA,8.640018652026301,6.603619920232065
10444.0,Gano,NGA,8.731914895308558,11.832808948206019
3938.0,Igbogila,NGA,2.974122873092265,7.055878748823541
5780.0,Matagami,NGA,8.482992864983009,9.647785400347086
8583.0,Toto,NGA,7.080384446755703,8.388818563625103
7244.0,Oyan,NGA,4.760611912973898,8.04778540036311
10452.0,Kuyelo,NGA,6.951984825556382,11.252132957535741
10456.0,Idumuje-Unor/Onicha Uku,NGA,6.4536731372946186,6.367955468407054
256.0,Agenebode,NGA,6.684265322863759,7.106142281586637
4173.0,Jajimaji,NGA,10.804863613049996,12.897526896913492
2546.0,Dakaiyyawa,NGA,9.872327381259202,12.35181675199128
374.0,Olode,NGA,4.63635484173706,7.261877774162592
10464.0,Gajale,NGA,8.269257552697503,11.404557199958415
381.0,Ajaokuta,NGA,6.622899327753895,7.559205468395209
8941.0,Wamdewo,NGA,13.130280279484165,10.52590189693689
10468.0,Eha Ndiagu,NGA,7.578950914959838,6.794622135069594
8809.0,Uzuakoli,NGA,7.558752502263524,5.623526896986119
5709.0,Maradun Relocation,NGA,6.170674424324006,12.555580950970688
206.0,Iloshi,NGA,6.469262520587446,7.51322088603805
7686.0,Sakwaya,NGA,9.251145664487488,11.685373050771524
10475.0,Sii,NGA,7.4208159943408,4.6048602303293995
5424.0,Mabudi,NGA,9.787696946485127,8.730276896955111
4020.0,Ilesha Ibariba,NGA,3.421687513159506,8.917250167393295
4012.0,Igbaraoke,NGA,5.058196946958002,7.408610230301424
7578.0,Rumiji,NGA,6.779196946785938,4.942860230326125
3687.0,Gwantu,NGA,8.459756086402933,9.231634423831503
10487.0,Okoro Ete,NGA,7.749648559592075,4.535827972265723
2355.0,Chadawa,NGA,5.598284666202262,13.763632160062537
10490.0,Eyerakpokpo,NGA,5.759863613554489,5.985373050828528
5675.0,Manor,NGA,9.25729218463336,6.950288801734708
8718.0,Ukata,NGA,5.830588251228468,10.83297617229617
207.0,Adoka,NGA,7.976315226236124,7.454215069010665
7006.0,Ogwuosie,NGA,7.361879117270237,6.377030772947489
9055.0,Yana,NGA,10.01335567662124,11.405653881055144
7097.0,Onicha Ugbo,NGA,6.421267122260359,6.319246195224681
7515.0,nga Magajiya,NGA,5.275974724714042,11.17337874878234
10499.0,Aladia,NGA,5.755326576517977,5.481897267357829
2186.0,Bugau,NGA,8.383541774211643,10.963710804978644
2026.0,Bomadi,NGA,5.917165200840422,5.160495150958983
3858.0,Ibe,NGA,6.811863613449341,4.967926896992613
7927.0,Shanono,NGA,7.990844005488264,12.050938661627548
4139.0,Itobe,NGA,6.729130280124225,7.421393563634655
10509.0,Ulakwo,NGA,7.1300786671809675,5.416795714192316
7044.0,Okpara,NGA,5.962886869348126,5.636100540396842
10513.0,Opuba,NGA,4.906138123443723,6.04682101462861
2443.0,Chiromawa,NGA,8.40843504186117,11.641764992164033
3415.0,Gawura,NGA,8.628045431449456,9.65713295755185
10524.0,Kaiama 2,NGA,6.300419169056007,5.11402689699092
3894.0,Idon Kasa,NGA,7.209863613409484,8.984860230285886
7540.0,Roni,NGA,8.266179402777574,12.66064970393323
6943.0,Obigwo,NGA,6.90189259894743,5.45065733177032
6495.0,Nafada,NGA,11.332271020404601,11.093749119153575
1188.0,Amoya,NGA,6.005419169085596,7.193934304377915
8771.0,Umunelu,NGA,6.864863613444005,5.202415785879112
9115.0,Zakirai,NGA,8.885504638882917,12.100757666152113
10529.0,Raminkura,NGA,8.551113613275264,10.27819356360626
10533.0,Sagbama,NGA,6.19806874171564,5.159219204682842
3672.0,Gurin,NGA,12.880048798027683,9.11245282287696
3004.0,Ekpesa,NGA,6.069186530190226,7.438245646967813
10542.0,Bani,NGA,4.191292185139765,9.010217373142472
7926.0,Shani,NGA,12.056308057369222,10.223638008051136
3086.0,Lokpaukwu,NGA,7.42865149217557,5.929102654558905
10546.0,Abereke-Odo,NGA,4.639704883508038,6.249304674757667
3140.0,Esa Oke,NGA,4.889066512192321,7.754642838993642
2526.0,Dadin Kowa 1,NGA,11.499149327266267,10.288193563606127
10550.0,Dutsen Giginia,NGA,8.588196946604981,10.733193563601711
5547.0,Maji,NGA,7.162085835636512,9.253625662381722
7976.0,Shika,NGA,7.561946946707597,11.199235230263657
4300.0,Kafin Madaki,NGA,9.757056595610969,10.690123388163554
3584.0,Gota,NGA,7.659323072824016,7.478553923994606
10558.0,Matan Kari,NGA,6.085863613521881,11.589193563593117
10560.0,Shuni,NGA,5.28612377620341,12.957136653010144
10563.0,Gosa,NGA,7.292006470544078,8.954622135048021
2429.0,Chinade,NGA,10.41965527975527,11.519235230260302
6240.0,Moriki,NGA,6.488709767327794,12.878834589221213
3397.0,Garum Malam,NGA,8.372006470436167,11.684622135020756
754.0,Alkamu,NGA,5.395905280257554,13.167568563577177
7962.0,Shelleng,NGA,12.013554089119568,9.892598325514772
10572.0,Umudioga,NGA,6.796179402924581,5.168719879446851
7524.0,Riyom,NGA,8.7183821317776,9.609860230279548
8578.0,Toro,NGA,9.077764847790304,10.059551588299582
10577.0,Zarewa,NGA,7.813499976985478,11.399405684807071
7753.0,Sango,NGA,8.782502502141169,7.300276896969293
9103.0,Zagga,NGA,4.1236317296602,11.566309505622199
3864.0,Ibia,NGA,6.297730280167385,5.173526896990803
4063.0,Ingawa,NGA,8.051292184753937,12.63926499215419
7129.0,Osi,NGA,5.225568741813075,8.075437153371794
3453.0,Gebe,NGA,6.52386361347809,13.158193563577411
6151.0,Mkpani,NGA,8.1584747244258,5.824026896984015
1388.0,Madaki,NGA,9.14591299593192,8.110909613010538
10597.0,Guri,NGA,10.417155279755404,12.727360230248301
10599.0,Furifuri,NGA,6.587958851566918,12.24057451596752
7082.0,Omifon,NGA,4.8595127364516015,6.83064970399137
10600.0,Mangun,NGA,9.15456949556797,9.220350426361788
10604.0,Akpoa,NGA,7.964569495686972,5.966821014629607
10605.0,Ungwan Kunkumi,NGA,8.03111361332739,11.36194356359533
10606.0,Dadur,NGA,9.81756731685224,9.227749119172346
2976.0,Egubuma,NGA,7.446663613385813,4.526726896996911
10610.0,Gubachi,NGA,8.022590886055431,11.239708715111599
6795.0,Nko,NGA,8.189863613311475,5.876764992221494
7611.0,Sabon Birni 2,NGA,6.810772704358577,12.546072351462486
10613.0,Lango,NGA,10.806252501938651,11.430138008039155
5606.0,Malete,NGA,4.467196947017193,8.706193563621854
3196.0,Faran,NGA,12.909161858453471,9.576965493437632
3875.0,Icheabu,NGA,7.790059691782813,8.866821014600678
5140.0,Kutigi,NGA,5.594446946904366,9.199860230283434
10615.0,Umanya,NGA,6.909641391217299,6.209082452535635
8774.0,Umuosu,NGA,7.487144315136248,5.400386546110766
372.0,Aiyede 1,NGA,4.386649327977619,8.3133126112449
10626.0,Aragban,NGA,8.934046619772937,6.569108596322922
7339.0,Lagun,NGA,5.362319753945122,9.628895317998516
6409.0,Murya,NGA,8.586212819621128,8.418511023942257
3388.0,Garkida,NGA,12.567439370449504,10.409405684817111
4635.0,Katcha,NGA,6.313803007438485,8.764557199984964
3287.0,Fufore,NGA,12.65496165208067,9.219958269499125
3956.0,Ihube/Nduhu,NGA,7.368692442222523,5.873058428515082
4150.0,Iyale,NGA,7.291175088811348,7.631526896965911
10637.0,Cross Kauwa,NGA,13.672893915793537,12.94425416964027
10638.0,Ubantoma,NGA,4.844478998261294,8.83588587131291
4081.0,Ipoti Ekiti,NGA,5.0745762573012305,7.875205057883151
2586.0,Dan Alhaji,NGA,8.692919168816752,10.532638008048108
10641.0,Pako,NGA,8.157196946648138,11.50052689692722
4945.0,Koinya,NGA,8.919030279905343,6.912360230306428
10642.0,Ania,NGA,7.832730280014143,5.561726896986671
5622.0,Malumfatori,NGA,13.339106037039056,13.672587502966076
10643.0,Garun Ali,NGA,8.859863613244478,11.570574515973979
7025.0,Oke Mesi,NGA,4.921101708876452,7.835431658868646
7000.0,Oguma 2,NGA,7.072363613423107,7.887103820040238
10644.0,Dagauda,NGA,10.861252501933302,11.704304674702936
3314.0,Gada,NGA,5.657085835786971,13.751110230238194
5737.0,Marraraba,NGA,13.16087810556803,10.31312109983778
3933.0,Igbo Emabama,NGA,8.159678428129427,5.940971341427204
10652.0,Biusare,NGA,11.733499976593569,11.035769321174195
2690.0,Dengebe,NGA,6.070488613523503,12.224026896920002
10654.0,Imilike Agu,NGA,7.605715465221949,6.843897267344299
7022.0,Oke Igbira,NGA,5.574308058017633,7.815365280802436
4034.0,Ilueologbo Owe,NGA,6.187831093186722,5.583884620563962
2831.0,Dokko,NGA,5.964600455639264,8.945386546075776
8429.0,Tede,NGA,3.448090564140285,8.552945336673025
8317.0,Tallase,NGA,11.683863612962085,9.967431658847334
7932.0,Shao,NGA,4.554373417596644,8.598095524407123
5715.0,Mararaba,NGA,10.358667031898037,7.493236298676597
8766.0,Umuakpu,NGA,6.875455011292404,5.2563656066670745
10662.0,Idung Ntuk Uma,NGA,7.646315226269095,4.770559155059109
10665.0,Beculah City,NGA,5.777482661171952,5.057717373182021
5436.0,Mada,NGA,6.932196946770574,12.140360230254123
1520.0,Bala Musa,NGA,11.483453356571795,9.974347409763103
4947.0,Koko 2,NGA,5.454985564804441,6.002014701860318
10667.0,Vom,NGA,8.790530279918054,9.725926896944936
7627.0,Sade,NGA,10.673196946396475,11.353834589236593
6937.0,Obe,NGA,6.67197472457447,5.3918602303216865
10668.0,Tiggi,NGA,4.604863613670074,12.796526896914363
7086.0,Omu,NGA,3.863030280410866,6.698193563641969
134.0,Abuja Military Areas,NGA,7.260314063854994,8.966301671727559
10669.0,Kpean,NGA,7.454775894086661,4.623807598750117
241.0,Ago Are,NGA,3.420141391566247,8.504165785846157
3907.0,Ifetedo,NGA,4.701817636648832,7.18336597743014
10671.0,Dundaye,NGA,5.204396946943616,13.129526896911038
4184.0,Jangero,NGA,6.493821946814496,12.986943563578926
10673.0,Opobo,NGA,7.535974724487821,4.512638008108133
8236.0,Sunkani,NGA,11.258369360131102,8.708308506150768
5541.0,Maikunkele,NGA,6.4779588515778475,9.68390784932628
10676.0,Lepe,NGA,4.743752502544984,6.13763800809206
1427.0,Azare_2,NGA,12.328752501786333,10.510045415455775
10679.0,Ganawuri,NGA,8.636808057711168,9.686526896945466
449.0,Alagbayun,NGA,4.149765574499805,8.04613474009902
3910.0,Ifon,NGA,5.770436530220164,6.930953980306251
10685.0,Igabi,NGA,7.774530280019772,10.792193563600957
10687.0,Rabah,NGA,5.504585835802211,13.124026896911122
10691.0,Yan Tumaki,NGA,7.475339803859122,12.199622135015455
3218.0,Sangere,NGA,12.508227249243294,9.345163260585172
9099.0,Yusufari,NGA,11.172762163737893,13.06370080995512
3475.0,Gerkawa,NGA,9.79774240102948,8.938799624225714
10699.0,Pajazam,NGA,11.507893916010271,8.946678412104275
4175.0,Jakusko,NGA,10.775157730699991,12.371330818487015
8709.0,Ugbokpo,NGA,7.881789539268181,7.657452822891535
9026.0,Wurisato,NGA,10.993196946364483,10.363291602821066
10705.0,Oruko,NGA,8.174409067858544,4.724860230328442
7617.0,Sabongida Ora,NGA,5.933432240988087,6.894781798934177
3100.0,Emuoha 1,NGA,6.863196946777519,4.880262529177293
5166.0,Kware 1,NGA,5.264678428418782,13.218008378391632
5866.0,Mbiama,NGA,6.443641391264045,5.062193563658347
1254.0,Aplapum,NGA,8.279149327588256,5.993193563649039
10712.0,Fanna,NGA,3.934863613737,11.706526896925315
135.0,Abukur,NGA,7.661824397678003,12.873487681227633
6931.0,Oba-Ile,NGA,4.577834628165463,7.909497911455913
5276.0,Liman Katagum,NGA,9.774752502041968,10.01308245249775
7108.0,Osan,NGA,5.058045431806328,8.035920836355977
5130.0,Kurfi,NGA,7.4865302800484095,12.667221341359848
10716.0,Ganga,NGA,6.931914895488547,10.63024484565396
10718.0,Jarmai,NGA,10.082780279788885,9.365276896948595
10725.0,Katami,NGA,4.7316584854522405,12.942039717425654
7017.0,Okada,NGA,5.393038216765601,6.7313681668162095
382.0,Ajasse Ipo,NGA,4.809704883490839,8.245653881086934
3893.0,Idomi,NGA,8.088460104549696,5.759246195230275
10739.0,Yandoma,NGA,8.075905279989469,12.741943563581712
10740.0,Amafor,NGA,7.081946946755605,5.351249119211079
10742.0,Danzanke & Modachi,NGA,6.447006470628707,13.193431658815157
9193.0,Zungeru,NGA,6.155081004819362,9.805295012886212
3968.0,Ijoun,NGA,2.85481599479731,7.151717373161298
6559.0,Nasarawa 2,NGA,10.436003963964104,8.336614616257204
10747.0,Rini,NGA,6.042780280192901,12.688610230248722
4132.0,Itas,NGA,9.964030279800648,11.855901896923593
10749.0,Beakogoro,NGA,7.428405280054261,4.693401896995487
10750.0,Fan Shanu,NGA,7.748954522446477,10.709405684813909
4879.0,Kirfi,NGA,10.410498533724489,10.401844357255872
370.0,Aiye/Ankpa,NGA,8.035419168882395,7.475415785856378
10754.0,Kofa,NGA,8.266054089494409,11.555812611212417
3862.0,Ibelu,NGA,5.147641391393448,10.490574515984905
5216.0,Lanlate,NGA,3.4519356858572467,7.590896266335856
10762.0,Betem,NGA,8.16573027998089,5.430593563654526
247.0,Agbogugu,NGA,7.474263613382948,6.252060230313075
3922.0,Igbajo,NGA,4.814493243278711,7.904860230296499
10767.0,Jakana,NGA,12.77653027951945,11.843193563590413
10768.0,Shargalle,NGA,8.103613613320077,12.964026896912605
10769.0,Karsil,NGA,8.43986361328656,12.932193563579668
6560.0,Nasarawa 3,NGA,5.742826576519201,12.046897267291964
5307.0,Loko,NGA,7.841681795164622,8.001981442416687
10773.0,Mahazu,NGA,7.035101708665076,11.41057451597576
6619.0,Ndelle,NGA,6.746930280122469,4.974726896992488
10775.0,Gindiri Town ,NGA,9.232171305515003,9.593578178997575
7275.0,Pambu,NGA,9.97997472424367,7.171304674748426
10781.0,Kademi,NGA,8.93486361323716,11.774443563591326
6696.0,Ngbalang,NGA,12.015280279595675,9.527915785835797
10782.0,Arabishi,NGA,7.582277406475664,8.608998161323933
7711.0,Samaru/Moroa,NGA,8.387056595747739,9.751702335541523
6940.0,Obi,NGA,8.769094382484313,8.368449973881665
10783.0,Sabon Gari 3,NGA,4.84935079313277,10.138449973863882
3519.0,Giri,NGA,12.546042474664528,9.364209823777852
7010.0,Oja,NGA,7.802144315104694,8.309947949590642
6935.0,Obarike Ito,NGA,8.32732393075797,7.025653881098877
10788.0,Tudun Iya,NGA,7.342893916426524,11.360314775716603
2677.0,Dekina,NGA,7.045101708664066,7.689758189482382
6817.0,Nkwoida,NGA,7.4116228726485245,6.474767637718248
10794.0,Kargi,NGA,8.33778027996334,11.024026896931998
4654.0,Katsalle,NGA,8.351252502184206,11.485415785816313
10800.0,Abocho,NGA,6.988631729373651,7.568555882473934
10803.0,Barkum ,NGA,8.646530279932447,11.64152689692561
10809.0,Oji River,NGA,7.267863613403536,6.2577768969797205
2741.0,Diko,NGA,7.199512736217546,9.265211107475901
1367.0,Atom,NGA,8.870873714253301,7.712233967672194
1983.0,Bode Sadu,NGA,4.778058058097058,8.938471341397502
3900.0,Ifaki,NGA,5.242676113606206,7.786526896964379
10811.0,Kudai,NGA,9.34236361319629,11.631943563592648
10812.0,Eyo Nku,NGA,8.150404153855987,4.751526896994715
7138.0,Otan Ayegbaju,NGA,4.793821946984561,7.951631063629482
2735.0,Marama,NGA,12.158923441974183,10.44964655505709
10815.0,Foggo,NGA,9.954712097983567,11.381526896928458
10817.0,Lokpanta,NGA,7.459149327670149,5.989741182696546
10818.0,Oso,NGA,7.804712098198449,5.862132957589911
10821.0,Mainok,NGA,12.6288636128676,11.830860230257372
3129.0,Erin,NGA,4.8890302803082735,7.563193563633359
10824.0,Pil,NGA,9.877735953568289,9.194009166453803
10825.0,Mariri,NGA,8.527641391055477,10.03041578583088
10832.0,Ihe,NGA,7.4509747244964855,6.227267637720608
10835.0,Kauru,NGA,8.147720756172829,10.57152689693651
10836.0,Sansani,NGA,10.984530279698705,8.113860230294424
10845.0,Kila,NGA,9.769530279820229,11.329526896928833
10849.0,Ogu Bolo,NGA,7.203752502298869,4.721526896995126
9028.0,Wuro Yolde,NGA,12.782826575815138,9.557638008057753
10852.0,Ungwan Shinkala,NGA,8.0665302799905,10.682739018147567
10853.0,Nyogor-Lueku,NGA,7.4389376874606725,4.752638008105638
10858.0,Ngadaya,NGA,13.262893915834528,11.75455719995494
3686.0,Gwano,NGA,11.882363612941862,9.566943563613123
4080.0,Iporo Ekiti,NGA,5.23996165282206,7.9518210146098385
10861.0,Egbelu/Nguru,NGA,7.134431514651685,5.370909613037995
10862.0,Gimba,NGA,7.952720756192332,11.069145944550618
3123.0,Enugwu Agidi 2,NGA,7.008512262078281,6.220625996079043
3805.0,Hildi,NGA,13.172974723924264,10.400193563604892
10864.0,Ibesit,NGA,7.703282416778969,4.851526896993777
4990.0,Kopbepang,NGA,9.282403295741842,8.904225309651654
10877.0,Ndoni,NGA,6.5905302801381795,5.547860230319873
10878.0,Ataibang,NGA,8.170030279980029,4.813526896994126
2005.0,Bojude,NGA,11.023030279694822,10.543860230270298
3916.0,Igana,NGA,3.2472445661867306,7.977241182676804
5123.0,Kunjiel,NGA,11.289863613001325,10.276735230272832
4086.0,Iresi,NGA,4.842363613646171,7.936026896962828
1907.0,Bindawa,NGA,7.810419168905006,12.670138008026594
3674.0,Guroji,NGA,11.115157730666127,6.958193563639379
10881.0,Kotonkoro,NGA,5.959607203278057,11.03024484564989
10882.0,Deregbe/Kpoguidi [NGA],NGA,2.7336355436815163,6.424860230311327
5639.0,Manchok,NGA,8.509560582976464,9.66864810906685
10888.0,Burun-Burun,NGA,8.72447899787341,11.389475614877044
8246.0,Shiya,NGA,3.185002502700889,9.466804674725408
10891.0,Dadin Kowa 2,NGA,8.627006470410553,10.695812611220937
10892.0,Akuyam,NGA,10.625302209559152,11.463456721489154
10895.0,Etebi Idung Assan,NGA,8.118581562036695,4.658962794431484
8793.0,Usere,NGA,6.2313689898515,5.340129047526504
10896.0,Kubacha,NGA,7.811768375254289,9.443669754090621
10898.0,Bagwai,NGA,8.136530279983464,12.156526896920633
8568.0,Tongo,NGA,11.36253027966088,10.70519356360177
10903.0,Mairuwa,NGA,7.225248228792599,11.598193563592922
2997.0,Ekinrin,NGA,5.869521733201598,7.832723478160424
5173.0,Kwen,NGA,8.263011761452308,7.2597676377102305
1712.0,Batagarawa,NGA,7.6041493276558025,12.90476499215134
7038.0,Okobo,NGA,7.706371549867815,7.417876103317374
10916.0,Arogbo,NGA,4.998491064611062,6.258781798940479
2990.0,Ekan Meje,NGA,5.10093028028712,8.053260230294905
10923.0,Daba,NGA,5.633196946900581,9.813879838120432
10926.0,Basirka,NGA,10.322530279764845,11.151526896930552
7136.0,Osu,NGA,4.624863613667888,7.585336420775875
7631.0,Safana,NGA,7.412684126209722,12.409732025123137
1743.0,Bazza,NGA,13.322919168353575,10.56995282286233
10933.0,Biryel,NGA,11.611196946302698,10.348860230272058
4031.0,Iloro,NGA,5.109094382850329,7.896783307219594
5176.0,Kwolla,NGA,9.248625517967554,8.952574516000432
205.0,Adogo Gari,NGA,5.239667535175154,10.103291602823555
1416.0,Aya Abam,NGA,8.353196946628303,5.253065358528271
10938.0,Ungwan Ibrahim Ninzam,NGA,8.607482660888778,9.34819356361561
3120.0,Enugu Abo,NGA,7.240419168962024,6.083540785870359
10941.0,Dawasa,NGA,10.948954522126485,11.977587502983024
10946.0,Garintor,NGA,11.669560582660486,10.76940568481327
7036.0,Oko,NGA,4.342308058140676,7.955638008073842
10948.0,Wasinmi,NGA,3.2323080582517627,6.986193563638917
10950.0,Ikang,NGA,8.524678428092889,4.794860230327706
10958.0,Anaku,NGA,6.9311679612633865,6.471816752049949
7964.0,Shemankar,NGA,9.52597472428893,8.627360230289531
10959.0,Shiwaki,NGA,9.016530279895559,11.29069356359602
3170.0,Ewu,NGA,5.9915302801979715,5.38277689698856
10961.0,Bille,NGA,6.888196946774887,4.576526896996566
1704.0,Bassa,NGA,7.1317386134173875,8.963610230286042
6965.0,Odo Ere & Igbaruku,NGA,5.561530280241039,8.250326896959828
7150.0,Otukwang,NGA,9.022871743309713,6.632339905105925
2671.0,Deiba,NGA,10.61109168324477,8.491526896957245
1447.0,Babbangida,NGA,11.772332748755723,12.153131835192184
5233.0,Lau,NGA,11.287463613001696,9.204326896950276
10971.0,Kagara Dauran,NGA,6.729446946790846,12.724860230248233
1728.0,Baure,NGA,8.74282657621921,12.83911948950651
1310.0,Sabon Gari ,NGA,4.901530280306992,12.120574515968764
10974.0,Ikot Eba,NGA,7.84378518197359,4.799664151896223
10977.0,Yandalla,NGA,8.802271020657367,11.822082452479583
10980.0,Aiyetoro/Idiogba,NGA,4.779419169208028,6.1081935636479505
10982.0,Wak,NGA,8.362363613294352,11.592915785815336
10983.0,Gobirawa,NGA,9.249863613205353,8.36219356362528
9029.0,Wurogauri,NGA,4.027196947061084,12.358193563585317
10987.0,Zor-Sogho,NGA,7.360039051990954,4.749421633836972
10989.0,Burji,NGA,8.54938742279942,11.172003087406678
10990.0,Ode Etikan,NGA,4.61261723685762,6.282541389733131
10995.0,Tungan Kawo,NGA,5.347919169151121,10.385415785827524
10996.0,Opuoko,NGA,7.5098636133794985,4.697241182709518
11000.0,Chikanda/Tchicandou [NGA],NGA,3.365196947127247,9.823926896944064
2601.0,Dange,NGA,5.3461381233997844,12.854271994953013
3946.0,Igueben,NGA,6.22354008409643,6.4991739558007735
496.0,Ogbese,NGA,5.364501294753487,7.260077621607361
11007.0,Owaza,NGA,7.195696946744213,4.970943563659203
438.0,Alabanisi,NGA,6.056689010350309,5.334542770004847
3243.0,Fika,NGA,11.309655279666169,11.28486023026285
2993.0,Eke 1,NGA,7.488402426167026,7.146595390121552
3987.0,Ikoro,NGA,5.0382846662582095,7.837316370648129
11012.0,Gora 1,NGA,6.119560583215547,12.684254169642783
2854.0,Donko,NGA,5.2931969469344295,11.721804674702675
7074.0,Oloko 1,NGA,7.5417026938360685,5.373940690091995
4084.0,Ire Ekiti,NGA,5.39469694692436,7.74686023029826
2411.0,Chia,NGA,8.969446946566872,7.421526896967923
3186.0,Fage,NGA,13.93319694607051,12.425912861830247
7991.0,Shiwari,NGA,9.404530279856644,11.787193563590932
1913.0,Binji,NGA,4.911530280305957,13.224860230243335
4008.0,Ilara,NGA,5.108602352358326,7.349004374446293
11027.0,Egbeda,NGA,6.752958851550385,5.2367649922278865
8886.0,Vodni,NGA,9.275233983573399,9.40263800805925
6953.0,Obubra,NGA,8.336227249660588,6.069203664658228
11031.0,Agoi Ibami,NGA,8.17515773095998,5.725644544043873
4401.0,Kagoe,NGA,4.1225796631009315,11.183625662362532
7292.0,Patani,NGA,6.193530280177779,5.2305268969898675
4568.0,Kardi,NGA,4.283196947035454,12.416526896918151
1683.0,Bargu,NGA,11.958117581188663,10.088352293766704
7030.0,Okeagbe,NGA,5.765449199139575,7.642607978046833
1378.0,Augie,NGA,4.597958851765962,12.890098325484912
2920.0,Dutsi 1,NGA,7.382919168947691,10.314026896939083
11047.0,Cit pont-kwango,NGA,10.836530279713536,11.562526896926556
4138.0,Itigidi/Ebida,NGA,8.020298395937221,5.893121099881856
5363.0,Lugge,NGA,9.657758350006787,10.106439177642782
11059.0,Usuk Ukwok,NGA,7.788974724462444,5.302193563655899
6843.0,Mmahu/Egbema,NGA,6.752566316157973,5.513238608699004
1176.0,Ameke,NGA,8.210389929098936,7.050298826796172
8399.0,Taura,NGA,9.281345094683875,12.224489859882949
11066.0,Suru,NGA,4.186922437241198,11.929173955746558
5008.0,Koton Karifi,NGA,6.804368117954613,8.082968338402823
8618.0,Tsanyawa,NGA,7.9847758940337386,12.296614616217793
7615.0,Sabon Gari 1,NGA,7.81825441794631,8.861297011896234
3923.0,Igbanke,NGA,6.204541032864792,6.34211829482843
2200.0,Bukkuyum,NGA,5.467118515544582,12.134075916528685
7062.0,Okwale,NGA,7.38742771595585,4.797937153404512
8697.0,Ubima,NGA,6.902171305747894,5.115757666221796
8798.0,Uteh,NGA,6.267495192451133,6.189158475927725
7978.0,Shima,NGA,9.131159909513581,7.7713417117793036
11086.0,Shira,NGA,10.043499976762472,11.459405684806397
4092.0,Irun,NGA,5.670592780230164,7.5849643969664085
7039.0,Okokpon,NGA,5.332244565978273,6.637717373166322
371.0,Aiyede 2,NGA,5.333393025361886,7.892115132257486
11097.0,Kono,NGA,7.493954522472026,4.60910265457185
8707.0,Ugbema,NGA,9.260406248863365,7.110674183792712
11099.0,Ikot Obio Ndoghe,NGA,7.7593874228783,4.62605070651957
3008.0,Ekuku Agbor,NGA,6.305885118876238,6.086258079777039
4039.0,Iane,NGA,7.693709767207325,7.295373050815334
11122.0,Ori Oke Iwamimo,NGA,4.692530280327807,6.182026896980557
147.0,Achalla,NGA,6.9873636134317465,6.335276896978986
3908.0,Ifewara,NGA,4.677720756519866,7.467717373158108
11124.0,Kwankiyal,NGA,10.458911232132266,11.148193563597452
390.0,Ajingi,NGA,9.036530279893478,11.966678412074224
11130.0,Kumurya,NGA,8.703613613260147,11.695276896925392
4626.0,Katagum,NGA,10.34828466572729,12.286263739024717
283.0,Aha,NGA,3.4996731375900807,8.584764992194543
3884.0,Idere,NGA,3.253863613805182,7.489304674745063
11153.0,Badarawa,NGA,6.522530280144926,13.001526896912216
7459.0,Rafin Pa,NGA,7.153641391192926,8.997971341396612
7023.0,Okeigbo,NGA,4.731569040014029,7.164395114024701
3238.0,Fiditi,NGA,3.9150810050434233,7.71196167957384
11159.0,Gadau,NGA,10.166308057558298,11.83352689692392
3377.0,Garam,NGA,7.341476516622128,9.313892488347014
11160.0,Lere,NGA,8.572085835495479,10.382082452493933
4151.0,Aiyetoro Ekiti,NGA,5.145828525896704,7.926088300471656
11164.0,Shabaki,NGA,9.596054089361196,11.230098325501265
11163.0,Fego,NGA,8.382940536369098,12.897167922554466
8759.0,Umomi,NGA,7.021793437989645,7.3432812829335266
2356.0,Chafo,NGA,5.184863613611998,10.081526896941412
1196.0,tunga maje,NGA,7.17430805785752,9.03782319324834
3410.0,Gatisa,NGA,9.202209292222596,7.24498368709329
3944.0,Igogo Ekiti,NGA,5.164678428428633,7.984119489554713
11175.0,Heipang,NGA,8.889546152924085,9.67041578583446
7147.0,Otu,NGA,3.4102339841599494,8.203656526589869
8142.0,Sobe,NGA,5.765333699023999,6.855373050819814
11180.0,Enwang,NGA,8.254863613304927,4.656829927298825
11182.0,Rara,NGA,5.617439371144495,12.987890533276067
4258.0,Kabo,NGA,8.171946946646587,11.855068563590429
11185.0,Dumus,NGA,9.43253027985389,11.523526896926851
11186.0,Kari,NGA,10.556530279741532,11.241526896929914
11187.0,Doro,NGA,7.904308057784475,12.775138008025433
2959.0,Edor 1,NGA,8.632144315021687,6.197667247857451
11188.0,Ikot Oku Usung,NGA,7.6263969467012425,4.926993563659634
3662.0,Gumau,NGA,9.01486361322905,10.252082452495412
7739.0,Sandamu,NGA,8.356159909591248,12.958193563579426
7075.0,Olomoro/Oruabe,NGA,6.139655280183168,5.417568563654809
3288.0,Fugar,NGA,6.495091683656393,7.0912812829363
4416.0,Kaita,NGA,7.739149327642272,13.082717373101648
8767.0,Umuawulu,NGA,7.097419168976297,6.150415785869694
4131.0,Ita Otu,NGA,4.3391136136966395,6.542693563643571
11200.0,Ari,NGA,9.571075734385493,10.979708715114107
4604.0,Kashere,NGA,11.008696946362939,9.911860230276535
1549.0,Bambam,NGA,11.5320858351994,9.69847134138966
4196.0,Jen Kaigawa,NGA,11.469625517745525,9.382955468376974
11209.0,Adigo,NGA,8.649863613265495,8.524347409777526
2551.0,Dalahi,NGA,12.376808057337305,8.57013800806791
3315.0,Gadabuke,NGA,7.28341916895771,8.439082452513418
7135.0,Ososo-Oke,NGA,6.245360689529333,7.398602920360009
11217.0,Obuama,NGA,6.7765302801195135,4.794860230327642
8679.0,Tungan Gimba,NGA,8.850059691676902,8.597801406760286
1379.0,Auna,NGA,4.7231969469913535,10.186804674718116
11226.0,Runka,NGA,7.305974724511039,12.451804674695618
11228.0,Yalwa,NGA,8.310696946632689,11.946110230256147
280.0,Agumu Koshi,NGA,4.358117581948621,10.520574515984537
11232.0,Rimi 2,NGA,9.000469673836482,11.384254169655554
11233.0,Abua South,NGA,6.633382131985657,4.95523060069652
11237.0,Ifute,NGA,6.949337297646142,6.604860230309531
5314.0,Lollo,NGA,3.6066817955879844,11.649102654501641
11244.0,Illo,NGA,3.7021713060679615,11.55255253795232
26.0,Abduka,NGA,4.315844005855759,8.26299748519494
11253.0,Goneri,NGA,12.312863612899264,11.484193563594001
11254.0,Arani,NGA,6.9134350420104465,5.214384039846991
3868.0,Ibokun,NGA,4.726308058102322,7.78563800807554
11258.0,Ukinkina,NGA,6.356530280161536,10.65152689693579
11257.0,Bayamari,NGA,11.509257552373482,12.768193563581127
11261.0,Imiringi,NGA,6.376003964370021,4.861000581203736
4260.0,Kabogi,NGA,5.4014191691459486,10.110415785829922
11264.0,Zakara,NGA,9.599560582867534,10.933648109053987
11265.0,Tungan Dogo,NGA,4.625924219728493,10.195466290879608
3961.0,Ijare,NGA,5.168151901901988,7.363328698770539
5133.0,Kuriya,NGA,6.560141391252339,12.491249119139617
11269.0,Omuanwa,NGA,6.889350792928825,5.063321768786501
8254.0,Tabira,NGA,2.931023034127127,9.056164578111078
6530.0,Bassam Jiwa ,NGA,7.2783159943551095,9.010098325523748
9133.0,Zauro,NGA,4.306159909996246,12.498749119139667
9128.0,Zaramari,NGA,13.722244565139077,11.490098325498893
2994.0,Eke 2,NGA,7.359735408266133,6.456398691849707
9123.0,Zandan Nagogo,NGA,9.853821946478368,11.328818563595524
2978.0,Egwi,NGA,7.069413162973141,5.013058428523508
11289.0,Auyo,NGA,9.938530279803299,12.33752689691894
11290.0,Umudema,NGA,6.958348461919477,5.08758750305202
11295.0,Kaura Namoda Airport,NGA,6.57228785589755,12.578496593886038
11296.0,Radda,NGA,7.653372385295017,12.476614616215738
11301.0,Bulkachuwa,NGA,10.517641390856559,11.65041578581451
11303.0,Yadakwari,NGA,8.412720756146303,11.7005745159727
11304.0,Dutse_2,NGA,9.337742401075536,11.755163260561215
11308.0,Richifa,NGA,7.953196946668501,11.16652689693042
2610.0,Dapchi,NGA,11.499863612980501,12.497717373107701
11325.0,Ofoni,NGA,5.97615990982923,5.120415785879708
11329.0,Emuoha 2,NGA,6.816726358546863,5.012507289148937
11332.0,Yakasai,NGA,8.287085835523794,12.207082452476005
3851.0,Iba,NGA,4.702363613660289,7.967985230295902
11335.0,Wagini,NGA,7.198196946743931,12.687082452471012
3870.0,Iboro,NGA,3.0853080582663464,7.083193563638085
11338.0,Dukke,NGA,7.247555921098093,11.576911512311074
6615.0,Ndeaboh,NGA,7.570854604364376,6.035040410495394
3827.0,Hong,NGA,13.025363612828,10.252026896939764
11340.0,Sakwa,NGA,10.293196946434476,12.124860230254404
5009.0,Kotorkoshi,NGA,6.820577899162765,12.141526896920853
2532.0,Dagere,NGA,4.413196947022517,12.567003087392829
11360.0,Ukanu/Awhum,NGA,7.41028028005625,6.519776896977254
11364.0,Obulo-Eziama,NGA,7.301996946733536,5.966326896982538
11365.0,Akuruba,NGA,8.572244565654174,8.531526896957066
11368.0,Katuru,NGA,6.435280280153565,13.104443563577641
7283.0,Panyam,NGA,9.212988613209097,9.40861023028146
11371.0,Keana,NGA,8.8009242193109,8.147587503021239
1838.0,Beri,NGA,5.727863613557651,10.283860230272811
11381.0,Ruwan Doruw,NGA,6.42531815894261,12.238496593889352
11387.0,Sumaila ,NGA,8.923196946571501,11.585526896926442
4394.0,Kafur,NGA,7.68829498591063,11.642703367514025
1699.0,Basawa,NGA,7.67597472447404,11.175138008041701
7766.0,Sankwala,NGA,9.250078666968802,6.613139800201994
1448.0,Babban Gona,NGA,6.046726358623887,10.129370034195778
11404.0,Nkalagu,NGA,7.779863613352357,6.4753730508237455
11421.0,"Bama (valle du kou, est)",NGA,7.411267122161305,6.561088300485415
11422.0,Rafingora,NGA,5.388651492379491,10.279405684818213
11426.0,Boi,NGA,9.507641390957493,9.562334977754634
3623.0,Gudi,NGA,8.26653027997026,8.881919053816137
6872.0,Ntamante,NGA,8.752363613255293,6.4225268969778995
3664.0,Gumel 2,NGA,7.970772704242419,9.848799624216529
11427.0,Ekeremor,NGA,5.873937687617187,5.077452822917428
232.0,Afuze,NGA,6.043246698103333,6.972074160654203
8802.0,Utonkon,NGA,8.041845595308253,6.948013383459372
11430.0,Kanya Baba,NGA,8.846530279912475,12.434860230251248
11431.0,Onyedega,NGA,6.800815994402792,6.708669754118041
8937.0,Wamako,NGA,5.1128939166495915,13.033496593881722
11433.0,Neke 2 ward,NGA,7.65605408955542,6.772717373165172
11435.0,Eban,NGA,4.910469674245502,9.656678412097259
11437.0,Katab,NGA,8.40653027995654,9.83486023027719
11444.0,Apa,NGA,2.8172710212562353,6.430971341422403
7028.0,Oke Oji,NGA,4.716173137468327,8.579741182670647
11447.0,Kutama,NGA,7.869446946676914,11.867776896923452
11448.0,Umukani,NGA,6.913058057883638,5.360138008099756
3921.0,Igbaja,NGA,4.878419169198169,8.388415785847316
11452.0,Mpu,NGA,7.640696946699844,5.992598325553764
149.0,Achi 2,NGA,7.383863613391993,10.053860230275273
11460.0,Mbagan,NGA,9.213937687283131,7.203131835241781
6969.0,Oduaha,NGA,6.631236162486923,5.025644544050946
11461.0,Kajola,NGA,4.517363613678637,6.7237491191973575
6981.0,Ogbia,NGA,6.316752502387744,4.683082452551005
11465.0,Marke,NGA,9.722530279824847,12.322860230252491
6631.0,Ndon Ebom,NGA,8.0610400839126,4.903291602875626
11466.0,Danmarki Lado,NGA,7.456530280051631,11.882955468352012
11467.0,Dankalwa,NGA,12.183196946245488,11.742915785813707
11468.0,Dan Dalama,NGA,8.462863613284142,12.144860230253967
11470.0,Bianu,NGA,7.4631969467175026,4.68986023032884
11474.0,Wiyakara,NGA,7.420376433901503,4.665116640585303
11475.0,Omuna Ozuaha,NGA,6.922216554614787,5.056036700913205
380.0,Ajagba,NGA,4.920930280305111,6.422726896977884
11477.0,Gwanara,NGA,3.1302636138173594,8.897926896953242
11480.0,Oboburu,NGA,6.602456206062772,5.225230600693772
11490.0,Adani,NGA,7.011457816327885,6.736599360743191
11493.0,Ogbagba,NGA,4.252590886432464,7.706375381813914
431.0,Akwete,NGA,7.358435041965987,4.88962213508859
11500.0,Alabata ward ,NGA,3.447278579772189,7.224247985405331
11511.0,Itreto,NGA,7.908966177442146,4.7403730508410575
1189.0,Amper,NGA,9.701236162180033,9.353683759693705
7073.0,Olokata,NGA,4.498567317384309,6.328934304386475
11513.0,Owelle-Ezukala,NGA,7.3165302800655105,6.017776896982091
537.0,Albasu,NGA,9.14153027988299,11.672568563592266
11516.0,Kudu,NGA,5.347006470738713,9.26628880171149
11519.0,Gangara,NGA,7.384530280058693,11.338860230262064
6982.0,Ogbogbo,NGA,6.814085835671303,7.10886023030449
9116.0,Zaku,NGA,8.314863613298908,9.65666578583439
11524.0,Seibokorogha,NGA,6.247136340778449,5.040011745476818
11529.0,Odorikpe/Ikpe,NGA,7.757988613354732,5.349651896988873
11533.0,Mucuatia (1 de maio),NGA,7.405924219450466,4.608193563662825
6986.0,Ogbona,NGA,6.445455011335444,7.116580660411923
11548.0,Atalawa,NGA,6.407085835711988,13.335415785797844
3414.0,Gaubi,NGA,7.270946946736711,8.823776896953943
369.0,Aiye,NGA,5.8006572643440295,7.7840665795041915
11555.0,Kinu,NGA,6.206530280176504,10.707526896935235
11558.0,Gwandere,NGA,8.504106037522384,8.567284472714345
2653.0,Deba,NGA,11.386900650028863,10.214489859902912
11568.0,Eluama,NGA,7.465178928699337,5.734049419507316
11577.0,Golontobal,NGA,12.660878105618071,10.024860230275516
8779.0,Ungwan Makera,NGA,4.120905280385085,12.516110230250383
11582.0,Ebemoha,NGA,7.910863613339383,5.481193563654135
11581.0,Sinawu,NGA,3.3467525026846814,9.028415785840934
5544.0,Maiyama,NGA,4.372216554869782,12.081134740058678
11587.0,Imina,NGA,8.089607203065047,5.926142281598452
11588.0,Iginene,NGA,5.76346361355415,5.687926896985226
3943.0,Igodo,NGA,7.4811136133824405,7.596804674744055
11590.0,Tiko,NGA,8.407482660908821,12.116764992159219
11600.0,Dungma,NGA,12.400604353631287,9.786526896944599
5458.0,Madobi,NGA,8.287530279968415,11.773860230258007
11605.0,Adiani,NGA,10.434863613087003,12.799860230247612
11606.0,Kangire,NGA,9.491196946514659,11.492860230260472
11616.0,Gaji,NGA,10.193752501999953,9.703749119167476
11621.0,Nsugbe,NGA,6.818891391226281,6.261665785868489
7027.0,Oke-Ode,NGA,5.032085835849471,8.543272928702917
11631.0,Sangiwa,NGA,5.785974724662915,12.839304674691801
7251.0,Ozu,NGA,7.672446946696576,6.322985230312288
11638.0,Mai Samari,NGA,11.082308057466678,7.161749119192797
11645.0,Nata'ala,NGA,8.568196946607035,11.266526896929399
11648.0,Kuraye,NGA,7.62619694670118,12.71386023024831
11649.0,Karofi,NGA,7.588651492159471,12.485163260553929
2257.0,Buruku 1,NGA,9.190604353952144,7.455138008078853
11655.0,Sule Tankarka,NGA,9.227863613207687,12.666526896915638
2065.0,Boria,NGA,3.1605653682003862,9.413983037299007
11656.0,Maigama,NGA,7.926054089528354,11.031526896931931
2006.0,Bojuega,NGA,8.044646222021642,7.345874723055747
11658.0,Kamfanin Doka,NGA,6.63819694679998,10.791526896934407
11657.0,Tilli,NGA,3.9725908864604573,12.338799624191605
5211.0,Lamurde,NGA,11.79686361295084,9.609360230279467
3521.0,Giringwe,NGA,8.711609645005355,8.446606262037154
11665.0,Falale,NGA,5.215974724720015,12.150415785809539
8797.0,Usonigbe,NGA,6.17928028017921,5.986276896982432
11670.0,Miga 2,NGA,9.71081599411172,12.237717373110554
363.0,Aisegba,NGA,5.482171305889971,7.603193563632986
3499.0,Gidan Dala,NGA,7.427742401266539,9.931223866639883
7058.0,Okundi,NGA,8.790974724362764,6.443749119200209
11672.0,Beli,NGA,7.839446946679937,11.44194356359446
11674.0,Kwong,NGA,9.265260438600778,9.015495150920287
11675.0,Nasarawa 4,NGA,7.904863613340026,11.24819356359647
11680.0,Badume,NGA,8.314409067844514,12.18970871510213
11686.0,Dan Gubi,NGA,6.247196946839026,11.646526896925813
11689.0,Deba Fulani,NGA,11.380974724103629,10.42374911916043
11692.0,Karo,NGA,4.78507194698523,9.30611023028256
11693.0,Danja 2,NGA,8.746530279922423,12.04652689692185
11694.0,Luggarewo,NGA,12.661292184293078,9.065336420761298
11695.0,Alelu,NGA,4.463803007623497,12.192132957526372
11697.0,Ringimawa,NGA,8.414625518050943,11.667241182640097
11699.0,Garun Babba,NGA,8.433196946620482,11.601526896926257
11704.0,Darki,NGA,8.919863613238503,11.660574515973208
11703.0,Danzabuwa,NGA,8.108196946653004,12.343193563585494
11710.0,Fura,NGA,6.283966177604721,12.75075766614554
11715.0,Idumuje Ugboko,NGA,6.405840624983971,6.363365977438007
11717.0,Kaugama,NGA,9.736530279823501,12.47419356358425
7021.0,Oke Amu,NGA,3.5127371769976645,8.128193563627715
11722.0,Kwa,NGA,8.374863613293018,12.149860230254031
6994.0,Ogori 1,NGA,6.180530280179145,7.45406023030098
11723.0,Mkpat Enim,NGA,7.773412000449981,4.702172058285719
11737.0,Zugachi,NGA,8.854863613245051,12.062193563588307
5150.0,Kwaghbo,NGA,9.317863613198572,7.713693563631784
11742.0,Abbare,NGA,11.617863612968662,9.254526896949825
6995.0,Ogori 2,NGA,7.811040083937164,7.351330818537399
11745.0,Bubuche,NGA,4.633196947000554,12.859860230246863
11748.0,Rimin Gado,NGA,8.246946946639174,11.96861023025615
11750.0,Umu Nwa Nwa,NGA,7.402863613390374,5.509860230320493
7994.0,Shonga,NGA,5.151252502504204,9.017360230285488
11753.0,Bakana,NGA,6.965863613433833,4.7388602303281395
1320.0,Ashaka,NGA,6.399400650527411,5.637082452541526
11762.0,Aujara,NGA,9.424030279854817,12.049026896921848
7990.0,Shiwa,NGA,13.414663612789234,10.740993563601586
11768.0,Akwukwu,NGA,6.58911092529955,6.353139800204543
11773.0,Arugwadu,NGA,8.633863613267128,8.763304674732534
6933.0,Obagaji,NGA,7.9120858355615376,7.887823193259598
11775.0,Ididep,NGA,7.929228692702803,5.158669754133539
11778.0,Garbabi,NGA,11.035696946360261,7.833749119186011
11779.0,Izge-Unore,NGA,13.327919168353297,11.000138008043283
11789.0,Ukam,NGA,7.779648559589025,4.656365606673145
3841.0,Hungu,NGA,9.044625517987997,11.60057451597386
2921.0,Dutsi 2,NGA,8.135974724427944,12.829026896913938
11794.0,Karmo & Tudu Uku,NGA,7.485318158836494,8.495466290896594
11799.0,Mbaukwu,NGA,7.074784248343667,6.135415785869734
11801.0,Jajere,NGA,11.439863612986478,11.979304674700312
11802.0,Edemeya,NGA,7.600935041941794,4.6356935636628105
5433.0,Machina,NGA,10.049493242755169,13.13597134135543
11820.0,Guidan Alhasan,NGA,6.229196946840939,12.714860230248393
11831.0,Bunyia,NGA,8.966252502122417,6.498054674755121
5648.0,Manfu,NGA,4.957689700591258,9.068338491154481
7234.0,Owa Alidinma,NGA,6.28158775143336,6.025779770545159
11841.0,Kurukuru Relocation,NGA,5.990101708769705,13.512003087383425
11843.0,Umuwabu,NGA,7.003752502318994,6.528749119199217
11854.0,Kente,NGA,9.456113613184831,7.88444356363015
11855.0,Dole,NGA,6.457196946818124,12.919860230246341
11858.0,Iyamauang/Ohana,NGA,8.357118515255454,5.967801406786404
11861.0,Tsiga,NGA,7.528530280044183,11.605193563592692
11867.0,Abraham Adesanya ward Block A,NGA,3.3606969471277472,6.419026896977992
11870.0,Dumbilwa,NGA,11.477085835204969,11.125971341375328
11875.0,Giwa,NGA,7.418196946721969,11.279860230263047
11882.0,Gulu,NGA,8.297482660919805,11.864860230257008
11889.0,Silame,NGA,4.845924219706489,13.036678412063429
4021.0,Ijesu Isu,NGA,5.501833310549963,7.711375381813756
11908.0,Chito,NGA,9.60361361317011,7.712568563631845
11910.0,Fikyu,NGA,10.015419168684533,7.086638008082324
7014.0,Sekona,NGA,4.440815994638821,7.622717373156495
3498.0,Gidan Ami Akwiya,NGA,8.736273869667482,8.545885871316008
7024.0,Oke Ila,NGA,4.992720756488254,7.955336420772077
11928.0,Gure,NGA,8.38971868575524,10.325584867953463
34.0,Abinsi,NGA,8.74836361325563,7.751193563631377
11935.0,Gadabiu,NGA,6.914530280105639,8.598860230289546
11937.0,Isu,NGA,7.001308057875043,5.141526896990951
11944.0,Tulmaytha ,NGA,2.999863613830549,8.279860230292812
7300.0,Pella,NGA,12.92786361283767,10.144526896940771
11965.0,Adogi,NGA,8.618954522359655,8.523345078775101
11966.0,Ouro Ousmanou,NGA,13.22380300674745,9.65940568482468
3904.0,Ife 2,NGA,5.769122872812801,7.91152689696322
11980.0,Uyakama Town,NGA,6.538068741681537,5.062552538017583
11997.0,Akabor,NGA,6.920419168994045,5.619749119208338
11999.0,Dan Karmawa/Tara,NGA,6.357006470637665,13.470098325479066
12003.0,Amagu,NGA,7.230280280074151,6.136526896980844
375.0,Aiyepe Odo,NGA,3.7352921851856316,6.805431658878788
12009.0,Kode,NGA,8.676530279929594,11.849860230257034
163.0,Ado Awaiye,NGA,3.428651492575562,7.8310723515093335
8733.0,Umaisha,NGA,7.1876413911895245,8.014638008073339
12014.0,Obokwe,NGA,7.267224724514812,5.030276896991654
3895.0,Idowa,NGA,3.8691344470768545,6.768506063641254
5068.0,Kuchi,NGA,4.486530280348526,11.703193563591876
12030.0,Gundutse,NGA,8.514530279945685,11.822193563590805
1475.0,Bagale,NGA,13.101075734032456,9.650011745430557
3168.0,Evwreni,NGA,6.065376434036781,5.402680743142009
7008.0,Ohoba,NGA,6.878414338080296,5.412396462205562
12049.0,Aboime,NGA,7.8151413911267795,6.433749119200081
12054.0,Ikot Mton,NGA,7.854688174748501,4.762404089977046
8769.0,Umuleri,NGA,6.899512736247428,6.29959707241786
12060.0,Gongolon,NGA,13.19081599376381,11.920098325494397
12063.0,Sauwa,NGA,4.332363613697385,12.617776896916169
5191.0,Lade,NGA,5.619641391346274,8.755749119177027
3891.0,Idoani,NGA,5.845353809624288,7.301428857753597
12066.0,Mbar,NGA,9.19694694654413,11.407776896928087
12069.0,Futuk,NGA,10.898196946374037,9.835276896943801
12083.0,Afa,NGA,7.336341600818031,6.606809915844056
5138.0,Kuta ,NGA,4.282684126522725,7.643321768760715
4680.0,Kebbe,NGA,4.737043100836167,12.126655102049229
12099.0,Bitup,NGA,10.156946946448125,7.186526896970382
12109.0,Benta,NGA,8.42753027995431,6.681360230308919
3161.0,Etu,NGA,7.663196946697476,6.056360230315019
8461.0,Tewure,NGA,4.210255770572175,8.323095524410002
12126.0,Zalau,NGA,8.237363613306718,10.738193563601522
12130.0,Bakala Guzrli,NGA,9.342530279862814,11.566860230259913
12137.0,Achika,NGA,9.024530279894776,11.800860230257573
12139.0,Sheme,NGA,7.162085835636617,11.704304674703083
12142.0,Tafa 2,NGA,7.285504639042891,9.245629461052427
12144.0,Gora 2,NGA,7.768435041925031,8.882479277905862
12167.0,Falali,NGA,9.038530279893305,11.467526896927472
12181.0,Muchalla,NGA,12.70531815831443,10.121223866637989
12182.0,Umuobasi,NGA,7.391391391169048,6.027360230315282
12187.0,Agaji,NGA,8.646946946599142,10.619860230269394
3680.0,Gwadabawa,NGA,5.240815994558757,13.356764992146863
5260.0,Leru,NGA,5.9020375265840155,7.446744288272323
12200.0,Tsafi,NGA,10.098530279787319,11.360860230261931
12217.0,Sitti,NGA,8.783196946585532,11.284860230262904
12224.0,Nkarasi 2,NGA,8.658593771994795,6.2489872144399055
7019.0,Okaka,NGA,3.4610230340742567,8.216019650583373
12240.0,Gidan Baure,NGA,7.044149327711795,12.981526896912348
3975.0,Ikeji,NGA,4.949560583332531,7.429102654543681
7133.0,Osok,NGA,8.175696946646223,5.168563934027763
12266.0,Dore,NGA,8.859196946577999,11.280193563596267
4083.0,Irawo,NGA,3.351649328080971,8.539503087433042
12273.0,Yardaje,NGA,8.568196946607026,13.018471341356618
12277.0,Tsale,NGA,8.71319694659248,12.078193563588187
12279.0,Agbobo,NGA,6.331914895548504,7.6407576661966345
12286.0,Lambu,NGA,8.353752502184014,12.012082452477502
12291.0,Eteo,NGA,7.182590886139506,4.752435987903789
12290.0,Enwe,NGA,6.110916245098456,5.372404089970947
3949.0,Iguobazuwa,NGA,5.354308058039481,6.564961240411084
3182.0,Fadan Karshe,NGA,8.58476557405628,9.378781798909316
12307.0,Ilogbo,NGA,5.099122872879552,7.83782319325996
2590.0,Dan Tatashi,NGA,7.690233983731795,11.97078615618184
12338.0,Ashige,NGA,8.802155279916839,8.578610230289732
12344.0,Sanyinna,NGA,4.862085835866693,12.701249119137449
7002.0,Ogunmakin,NGA,3.7865302804184955,7.151526896970763
6964.0,Odige,NGA,6.260604354245189,6.857267637714538
4123.0,Uso,NGA,5.42221655476474,7.27642885775387
12353.0,Saye,NGA,8.395577899005184,12.279622135014941
6819.0,Nmiata,NGA,6.792271020858653,6.416526896978122
4100.0,Isan,NGA,5.3173636135987055,7.921318563629667
4011.0,Ilasa Ekiti,NGA,5.691958851656429,7.799907849345241
12385.0,Ekeya,NGA,8.146530279982526,4.885163260629976
12389.0,Kazurawa,NGA,9.024863613227971,11.716526896925304
12391.0,Mabuto,NGA,5.741419169111863,10.677749119157722
12406.0,Nabanga,NGA,6.611530280135994,12.428193563584749
12411.0,Samri,NGA,6.8265302801145005,11.753193563591331
12412.0,Tagwaye,NGA,8.596530279937527,10.77819356360118
6988.0,Ogboro,NGA,3.611530280435955,8.766214396954542
12430.0,Kurdula,NGA,4.369863613693507,13.576526896906499
12436.0,Ikono ,NGA,7.696227249724556,5.354860230322277
12438.0,Gala,NGA,8.948530279902313,11.452193563594532
12440.0,Kwakwaa,NGA,13.04430805727064,10.186804674718093
4152.0,Iyara,NGA,5.9705302802000695,7.842443563630457
12456.0,Awai,NGA,7.902641391117994,11.068749119153713
12459.0,Gargai,NGA,8.381530279959058,11.544860230260134
12465.0,Toranke,NGA,9.164863613214001,11.993193563588989
8969.0,Wawa,NGA,4.409409068234985,9.904557199973594
12477.0,Galadimawa,NGA,7.334863613397002,11.056526896931546
12480.0,Yargoje,NGA,7.474863613383001,11.869860230256787
12481.0,Kirbutu,NGA,12.424961652103594,10.485252387133537
12487.0,Ikwun Ihe,NGA,7.885015128493422,5.4571329575936565
12490.0,Kware 2,NGA,8.19119694664472,10.450860230270937
8684.0,Tunkus,NGA,9.6063450946514,9.015045415470603
6980.0,Ogbeofu,NGA,6.322889929287704,6.491307598731811
12519.0,Oporoma,NGA,6.080233983892898,4.807082452549734
12521.0,Bunu-Tai,NGA,7.243372385335902,4.765386546117254
7109.0,Ora Ojora,NGA,5.901054089730987,7.6791459445845645
12538.0,Akassa,NGA,6.060604354264911,4.3267120821846055
12542.0,Gella,NGA,13.299863612800504,10.15819356360732
12549.0,Shanga,NGA,4.583966177774641,11.21562946103271
12548.0,Bodai,NGA,5.3444469469294,12.807151896914181
2463.0,Cham,NGA,11.711715464811178,9.70800837842682
3624.0,Gudumbali,NGA,13.17781233076146,12.944603819989869
12567.0,Yako,NGA,8.190974724422514,11.654304674703678
12572.0,Ampan,NGA,9.568499976810019,9.391072351493795
12575.0,Mallam Sidi,NGA,11.287244565382807,10.470098325508712
12576.0,Auno,NGA,12.93111361283741,11.84569356359049
12577.0,Gassol,NGA,10.449122872344763,8.538008378438304
12578.0,Gegu,NGA,6.825126771342717,8.246965493451032
12579.0,Burra,NGA,8.900696946573705,11.01569356359891
12580.0,Dandi,NGA,5.117363613618783,12.731110230248387
12581.0,Dawaki,NGA,9.573000868075221,9.42760532832053
12582.0,Ebe,NGA,7.38304543157388,6.4847087151593295
12583.0,Osegere,NGA,4.118872622727847,7.361346716788453
12584.0,Tungan Rogo ,NGA,3.637363613766848,11.710138008036177
12585.0,Ijan,NGA,5.3891389759105515,7.623700810009662
12586.0,Yangalu Makaranta,NGA,5.302363613600473,10.418818563604693
12587.0,Rawuya,NGA,6.693613613461165,12.244443563586703
12588.0,Garbadu,NGA,6.118435042090008,12.407717373108673
12589.0,Dogondaji,NGA,4.803911232697697,12.468193563584089
12590.0,Jido,NGA,8.648837972239932,11.914860230256435
12591.0,Oba,NGA,5.722919169113865,7.374443563635358
12592.0,Gwarmai,NGA,8.256530279971505,11.53247927787927
12594.0,Takumpara,NGA,6.584863613472004,9.28819356361605
12595.0,Gora,NGA,7.257196946738133,12.352860230252096
12596.0,Ndiuloukwu,NGA,6.882555921134451,5.653706384165456
12597.0,Oro Ago,NGA,5.235828525887653,8.333983037309839
12598.0,Abadam,NGA,13.265924218864455,13.617587502966673
12599.0,Unilorin University,NGA,4.67145091525069,8.48200308743368
12600.0,Mato,NGA,9.692171305468923,8.447167922598869
12601.0,Katagwom,NGA,8.81319694658236,6.491877774170191
12602.0,Shagari,NGA,4.99444694696438,12.62569356358269
12603.0,Okobo Ebughu,NGA,8.263785181931551,4.702899446014874
12604.0,Sabon Birni,NGA,6.866530280110434,12.571526896916414
12605.0,Monkin,NGA,11.699196946293835,8.842193563620482
12606.0,Masama,NGA,4.699863613660501,12.4641935635843
12607.0,Kusada,NGA,7.9739812603919225,12.462899445937303
12608.0,Birri,NGA,11.27168179482148,10.909708715114984
12609.0,Ogbo,NGA,6.626808057912178,5.1301380081021355
12610.0,Sofon Dagga,NGA,6.439350792973752,9.48306535848602
12611.0,Kashini,NGA,4.5803899294619255,10.706965493426502
12612.0,Bogoro,NGA,9.599863613170424,9.662638008056716
12613.0,Ikem 1 (south),NGA,7.7031969466935335,6.7673602303081
12614.0,Wawa,NGA,11.127958851112929,10.793907849315213
12615.0,Okenyi,NGA,7.6897048832027535,7.355177690619569
12616.0,Nungu,NGA,8.234122872566285,9.345230600652425
12617.0,Bassan Zarangi,NGA,8.16719694664712,8.47241578584643
12618.0,Oteri,NGA,6.162641391292038,5.338563934025906
12619.0,Kajiji,NGA,4.959030280301276,12.509304674694999
12620.0,Zogirma,NGA,3.956292185163445,12.262003087395781
12621.0,Muguram,NGA,11.106530279686504,12.269145944538405
12622.0,Ore,NGA,4.077363613722882,7.5379554683953875
12623.0,Harbo,NGA,9.540280279843177,12.147776896920828
12624.0,Igbodo,NGA,6.35974015670469,6.293749119201685
12625.0,Amanku,NGA,7.324863613398042,4.563193563663261
12626.0,Esabang ,NGA,8.435974724397903,5.930693563649581
12627.0,Umuneche Uvuru Ntu,NGA,7.190916244990359,5.308544440848643
12628.0,Mayo Kam,NGA,11.05236361302527,8.241804674737809
12629.0,Udaken,NGA,5.360488613594644,6.4784018969777595
12630.0,Adim,NGA,8.038974724437713,5.732638008096129
12631.0,Saminaka,NGA,6.75569694678822,9.115693563617878
12632.0,Ilu Omoba,NGA,5.419655280255136,7.636735230299135
12633.0,Babana,NGA,3.820974724859492,10.43284002825096
12634.0,Kimbe,NGA,4.4161136136889265,12.191526896920237
12635.0,Gulumbe,NGA,4.355696947028225,12.40291578580712
12636.0,Mungadi,NGA,4.123863613718169,12.116526896920979
12637.0,Obeakpu,NGA,7.318435041970173,4.852003087469903
12638.0,Yahe,NGA,8.516530279945403,6.472717373168226
12639.0,Achilo,NGA,10.021196946461709,7.012193563638888
12640.0,Awiwinghi,NGA,8.71710999007045,6.473555882484777
12641.0,Mongu,NGA,9.093499976857691,9.5242541696741
12642.0,Makoda,NGA,8.431768375191961,12.421526896918042
12644.0,Tsamia,NGA,3.721768375663082,11.159939595343426
12645.0,Tamigbe,NGA,5.879257552936637,5.110011745476073
12646.0,Ameladu & Mkar,NGA,9.072551785266247,7.334967757183903
12647.0,Kuroko,NGA,6.701838922102303,7.657205909311381
12648.0,Okpoama,NGA,6.295196946834229,4.30308245255491
12649.0,Dogon Kuka,NGA,11.41597472409993,11.66708245248142
12650.0,Palgore,NGA,7.692641391138945,11.505971341371609
12651.0,Jamji,NGA,10.888435041613024,10.383907849319536
12652.0,Kwankwaso,NGA,8.39319694662459,11.856526896923553
12653.0,Bor Zinha,NGA,11.708974724070659,8.915749119175345
12654.0,Dasa Unusa,NGA,11.595863612970867,10.07686023027478
12655.0,Onicha Olona,NGA,6.563311889336239,6.37198666709357
12656.0,Kayarda,NGA,8.59653027993745,10.499860230270476
12657.0,Ahai/Okporowo,NGA,6.900419168996078,4.832638008104921
12658.0,Umuanyi-Absu,NGA,7.394222587750158,5.826142281599386
12659.0,Udeni,NGA,7.978863613332551,8.287526896959314
12660.0,Tuomo,NGA,5.675318159017617,5.031526896991763
12661.0,Bornuesa,NGA,11.60786361296976,10.956526896932656
12662.0,Nnebukwu,NGA,6.808849120696136,5.693410954956322
12663.0,Wauru,NGA,5.494863613581038,13.768860230237847
12664.0,Ago-Awu,NGA,4.329275378403525,7.249566112656079
12665.0,Yambuki,NGA,6.654149327750858,12.801526896914215
12666.0,Birnin Tudu,NGA,5.29694694693401,12.084860230254735
12667.0,Kaura,NGA,7.821530280014982,11.311526896929045
12668.0,Birni Magaji,NGA,6.89278028010787,12.558610230249984
12669.0,Tombia Kingdom,NGA,6.893196946774502,4.786526896994288
12670.0,Ogwu,NGA,7.925419168893518,5.833193563650679
12671.0,Akotogbo,NGA,5.040451848920522,6.384468073449088
12672.0,Utai,NGA,8.883196946575504,11.746526896924793
12673.0,Ranian,NGA,8.37541916884845,11.517638008038007
12674.0,Ofagbe,NGA,6.343613613496158,5.551110230320156
12675.0,Oliya,NGA,7.617696946702011,7.641360230299248
12676.0,Gabasawa,NGA,8.91028027990615,12.177776896920626
12677.0,Anderai,NGA,4.3905302803581865,11.898193563589903
12678.0,Karamadanba/Kundage,NGA,4.388530280358227,11.434860230261215
12679.0,Abako,NGA,9.903196946473457,7.6324792779182085
12680.0,Bansan/Nsadop,NGA,8.823937687322136,6.344489859941761
12681.0,Bajinawa,NGA,7.717196946692089,12.71052689691514
12682.0,Mahaya,NGA,6.1065302801865,13.583193563573076
12683.0,Jenuwa Gida,NGA,9.928974724248675,7.203304674748015
12684.0,Ife Odan,NGA,4.1304383263611815,7.832561379722459
12685.0,Gurjiya,NGA,8.561530279940968,11.753193563591244
12686.0,Mayo Lope,NGA,11.67736361296287,9.241526896949841
12687.0,Kakau,NGA,7.395955567413947,10.37635448314539
12688.0,Ngurno,NGA,13.83708583496903,12.802360230247585
12689.0,Tsaskiya,NGA,7.348196946729073,12.54652689691673
12690.0,Dadiya,NGA,11.458613612984806,9.620485230279376
12691.0,Karmami,NGA,8.820530279915223,12.103526896921338
12692.0,Ajawa,NGA,4.129138976036303,7.9315268969629695
12693.0,Banda Sule,NGA,4.52298861367834,12.572985230249754
12694.0,Garki,NGA,8.798196946584024,12.83986023024719
12695.0,Mannang,NGA,11.60272075582736,9.034384039809176
12696.0,Turba/Mallamawa,NGA,6.383673137301482,13.281050706433398
12697.0,Dankaiwa,NGA,5.968911232581212,12.718193563581698
12698.0,Kabomo,NGA,7.451530280052027,11.594860230259659
12699.0,Kurugu,NGA,11.308613612999661,10.49361023027071
12700.0,Bokani,NGA,5.218613613608517,9.429026896948303
12701.0,Amadim Olo,NGA,7.178954522503506,6.4391026545536265
12702.0,Jani,NGA,7.808196946682996,12.833193563580434
12703.0,Kasuwan Ali,NGA,9.182641390989872,9.555971341391034
12704.0,Ochaja,NGA,6.578405280139297,7.828297730297199
12705.0,Amala/Ntu,NGA,7.203474724521388,5.231804674767984
12706.0,Kurawa,NGA,6.357742401373506,13.518496593876701
12707.0,Gobiri Tiv,NGA,10.582641390849982,7.810693563630758
12708.0,Jigba,NGA,8.47919694661575,12.426193563584794
12710.0,Chediya,NGA,10.210166643412366,8.206375381808744
12711.0,Yar Gaya,NGA,8.661768375169094,11.893907849304286
12712.0,Kore,NGA,9.44786361318574,12.347526896918966
12713.0,Ugbene,NGA,7.228752502296757,6.807638008085219
12714.0,Tombia,NGA,6.272804789973884,4.996624936207828
12715.0,Agholokpe,NGA,5.862155280210913,5.767776896984461
12716.0,Bagana,NGA,7.59531815882557,8.025163260598326
12717.0,Tariwa,NGA,8.309863613299557,11.601526896926186
12718.0,Yanzaki,NGA,8.454030279951736,12.592776896916222
12719.0,Dogon Kurmi,NGA,7.771530280020027,9.443193563614535
12720.0,Doguwa,NGA,10.161530279780985,11.383193563595153
12721.0,Bane,NGA,7.505696946713169,4.647776896995696
12722.0,Ogbakiri,NGA,6.911863613439329,4.823526896994024
12723.0,Ofodua,NGA,8.2562525021937,5.979026896982501
12724.0,Ofumbongha,NGA,8.372780279959859,6.09319356364794
12725.0,Ariori,NGA,4.606345095151349,8.687638008066452
12726.0,Manya,NGA,10.250071946438794,7.320068563635682
12727.0,Umueje,NGA,7.283709767248236,6.010501255956565
12728.0,Gujungu,NGA,9.58208583539455,12.363749119140572
12729.0,Dan Abdu,NGA,6.952780280101853,11.897776896923318
12730.0,Awuchinumo,NGA,7.387742401270523,5.651526896986012
12731.0,Umuchiakuma,NGA,7.879655280009195,5.491943563653949
12732.0,Rafelle,NGA,11.68891123200923,10.09771737313171
12733.0,Danchadi,NGA,5.214863613608986,12.799860230247617
12734.0,Bayara,NGA,9.734409067702533,10.219405684818934
12736.0,Barjaga,NGA,6.43986361348645,13.159860230243941
12737.0,Gantsa,NGA,9.72653027982456,11.662479277877928
12738.0,Sarandose,NGA,4.374863613692956,12.002638008033166
12739.0,Igbedi,NGA,6.147510672339281,5.371526896988443
12740.0,Igabele,NGA,6.188196946844966,4.306526896999341
12741.0,Kosubosu,NGA,3.227826576770696,9.550786156206051
12742.0,Kwande,NGA,9.296530279867671,8.71152689695518
12743.0,Zogarawa,NGA,8.681530279929033,11.879860230256654
12744.0,Dampar,NGA,10.13198482523838,8.53516326059361
12745.0,Gunduma,NGA,7.891145664623433,8.959988435414328
12746.0,Mbala/Achara,NGA,7.433673137196577,6.011764992220257
12747.0,Malala,NGA,10.746196946389215,11.006860230265708
12748.0,Bashar,NGA,10.159308057559015,9.312082452504775
12749.0,Gadam,NGA,11.0994469463539,10.475276896937427
12750.0,Amai,NGA,6.215295712274621,5.75424294636729
12751.0,Maikulki,NGA,4.929863613637502,13.163193563577249
12754.0,Babaldu,NGA,9.594863613171002,11.351526896928748
12755.0,Malamawa,NGA,9.32903027986421,11.582360230259892
12757.0,Pizhi,NGA,5.325126771492704,9.564158475893894
12759.0,Bara,NGA,10.727136340330441,10.37395113936308
12761.0,New Kwasam,NGA,8.244196946639313,10.342193563605555
12763.0,Kiyawa ,NGA,8.187085835533999,12.120971341365564
12872.0,Eken,NGA,7.3967525022798055,4.625749119218459
13087.0,Erijiyan,NGA,5.0000858358527065,7.6017491191885105
13091.0,Lumene Bangha,NGA,7.484569495734887,4.723879838171589
13147.0,Eziama,NGA,7.29919694673373,5.9353935636494635
13452.0,Oloka,NGA,7.590878106125008,5.374135592640762
13618.0,Umuna Okigwe,NGA,7.2457895393320015,5.751526896984951
5592.0,Malabo,GNQ,8.757016391032492,3.7353842202371776
1710.0,Bata,GNQ,9.796730781070627,1.8425732629386804
6220.0,Mongomo,GNQ,11.306171856727449,1.6262222375277433
6754.0,Niefang,GNQ,10.245260438502946,1.8508919763889937
5989.0,Micomeseng,GNQ,10.624917376508625,2.1446451765907826
17349.0,Evinayong,GNQ,10.55293027974193,1.438193563694489
17350.0,Mengomeyen,GNQ,11.022581817516372,1.6840123500595845
4232.0,Juba,SSD,31.566755903463964,4.833242970775185
7577.0,Rumbek,SSD,29.717903604548273,6.772751487951166
9052.0,Yambio,SSD,28.392880964308524,4.598848834318219
9084.0,Yirol,SSD,30.530008910222833,6.54403971748965
8967.0,Wau,SSD,27.983164049928668,7.700485230298627
1389.0,Aweil,SSD,27.375376431905718,8.751693563621481
5723.0,Maridi,SSD,29.459084124005106,4.903865358531608
10008.0,Aluakaluak,SSD,30.110798862917967,6.448205554052082
5593.0,Malakal,SSD,31.664971524633014,9.52790579382956
2056.0,Bor,SSD,31.578196944305954,6.2133592556547095
7500.0,Renk,SSD,32.81531076532051,11.747082452480331
10018.0,Bentiu Protection of Civil Camp,SSD,29.793021505887964,9.333105844317396
1214.0,Angoot,SSD,27.59455839048753,9.003707619843798
5065.0,Kuacjok,SSD,27.963341872203692,8.29682480356151
1178.0,Ameth-agok,SSD,29.989525711588307,6.55487849515014
150.0,Kashwal,SSD,29.241465212807835,7.014660030105291
9067.0,Yei,SSD,30.675171734312354,4.093767793359924
9079.0,Yida Refugee Camp,SSD,30.081799094993297,10.108193563607802
6762.0,Nimule,SSD,32.067331965354136,3.5875184581878576
3375.0,Kongor,SSD,31.380068739197633,7.125660230304407
10069.0,Kap,SSD,30.441850311003126,6.639631635130519
5135.0,Kurum,SSD,28.331399661454064,9.002540481069355
8577.0,Torit,SSD,32.573582619137554,4.407642599477553
4177.0,Jalimo,SSD,31.663302764403365,3.848484568961527
5422.0,Agok ,SSD,28.584987989381467,9.351626399436295
3179.0,Ezo Centre,SSD,27.46952270229271,5.073989018203665
1419.0,Ayien,SSD,28.450534752225227,9.09058729963577
8569.0,Tonj,SSD,28.673283901118282,7.278280520157876
216.0,Aduel,SSD,29.88208773921553,6.5791026545522655
8335.0,Tambura,SSD,27.47643435478805,5.598337448545134
7460.0,Raga,SSD,25.67828027822931,8.466526896957571
10126.0,Debalo ,SSD,31.678837969936957,9.569475614895332
10133.0,Namarabia,SSD,29.129821417124866,4.791189344251705
6372.0,Mundri,SSD,30.312932394168026,5.348405203867183
7020.0,Okau,SSD,33.00676557161416,7.794899445983927
10163.0,Pamir Refugee Camp,SSD,30.355942042467607,9.908977877335323
7081.0,Omeyo,SSD,32.3060858331221,4.129915785889806
2428.0,Chimel Thii,SSD,27.250629377171144,8.889635005061491
4543.0,Kapoeta,SSD,33.597165198072375,4.762955468423031
7280.0,Pankot,SSD,28.446683399271663,7.860631726174557
5825.0,Mayen Ulem,SSD,27.284082361402024,9.054443563618316
6895.0,Nyainthokmalual,SSD,31.593196944304506,9.311526896949244
1301.0,Aruch,SSD,30.28100944443573,9.966787313609258
4848.0,Kindi,SSD,30.779863611052484,3.6870507065292615
10291.0,Abyei ,SSD,28.437893914317286,9.598875381794414
5583.0,Makuac Akuel,SSD,27.502839801856297,8.949264992190928
4216.0,Jinkuata,SSD,33.609283900624575,9.983121099841052
3557.0,Gok Machar,SSD,26.859110923272546,9.223641592290456
5441.0,Madebe Centre,SSD,28.99354361123115,4.815126896994133
5934.0,Melut,SSD,32.20255178295332,10.44324732704528
904.0,Alok,SSD,27.609646220065187,8.364352983915152
7288.0,Pariang,SSD,29.979055530324388,9.919102654518788
10501.0,Yangiri Centre,SSD,27.95590527800156,5.18506856365715
1175.0,Ameeth,SSD,28.149134444648944,8.668818563622251
7273.0,Pamat,SSD,27.007479352170545,9.195809304357656
10583.0,Minkamman,SSD,31.501694596895767,6.047254596512246
5311.0,Lokurubang,SSD,31.06767062856766,4.342404089981325
10612.0,Nymlal,SSD,26.99104008201955,9.128742583225575
7576.0,Rum-Aker,SSD,27.614915694702344,9.13009460528421
7271.0,Paloich Market,SSD,32.540657261670056,10.461368166778925
10778.0,Armagentolis ,SSD,27.683584541594552,10.154317594615241
10887.0,Bunj West,SSD,33.72248987338453,9.962334977750794
10954.0,Kodok,SSD,32.10561361091996,9.889860230276758
5125.0,Kuom,SSD,28.032456203919924,7.708934304372595
11146.0,Terekeka,SSD,31.7455225256847,5.440984261329077
11403.0,Pakur,SSD,29.790396944484822,9.296726896948934
11489.0,Warrap,SSD,28.639759444599857,8.090276896961303
8997.0,Wet-wil,SSD,27.196480526833724,9.00789505615619
7239.0,Owiny-Kibul,SSD,32.27035743806395,3.8472059093495106
12497.0,Pibor,SSD,33.128883218660754,6.79858572050365
17368.0,Songo,SSD,24.344600453801064,9.810474265365375
17369.0,Bunj East,SSD,33.751615023184684,9.985933676603633
1589.0,Bangui,CAF,18.531759142702725,4.395875308414588
1832.0,Berbrati,CAF,15.790056450016866,4.260948384602951
1550.0,Bambari,CAF,20.669216362872703,5.7654751170493
2339.0,Carnot,CAF,15.87714932682853,4.942622135087969
2092.0,Bouar,CAF,15.595573489114198,5.939829366118657
2073.0,Bossangoa,CAF,17.444976880994318,6.491623984356076
4395.0,Kaga-Bandoro,CAF,19.182899326497992,6.995931658877026
1584.0,Bangassou,CAF,22.817416354464804,4.746294829484274
2166.0,Bria,CAF,21.98287014787991,6.54126545906832
7284.0,Paoua,CAF,16.433132220901403,7.243889356516803
2007.0,Bokaranga,CAF,15.641373046528633,6.992470293198583
10169.0,Kouango,CAF,19.97653027879977,4.993526896992157
6844.0,Nola,CAF,16.050871364463426,3.520984261347991
8030.0,Sibut,CAF,19.084625516983934,5.733749119207148
730.0,Alindao,CAF,21.21358910220529,5.03838964208986
10204.0,Baboua,CAF,14.830166642950374,5.802132957590189
1981.0,Boda,CAF,17.46801176053172,4.31868739082637
2154.0,Bozoum,CAF,16.37745620508524,6.316526896979047
4082.0,Ippy,CAF,21.196974723121944,6.253304674757529
6618.0,Ndl ,CAF,20.645635969789556,8.408762669315914
1713.0,Batangafo,CAF,18.289560581998657,7.302739018181396
6218.0,Monga,CAF,22.80746777851613,4.20954773033364
5842.0,M'bki,CAF,17.987136339604405,3.8709208363974175
10431.0,Binon,CAF,16.634569494819957,5.678585720514843
9050.0,Yalok,CAF,17.097334876788516,5.31692919583963
4256.0,Kabo,CAF,18.622147562885566,7.693810847582547
2678.0,Dkoa,CAF,19.080889253247978,6.322552538004686
3350.0,Gamboula,CAF,15.13690064965395,4.121897267371481
2096.0,Bouca,CAF,18.274493241932646,6.5115268969771165
10621.0,Nangha-Boguila,CAF,16.914696945772295,7.1333602303041035
1660.0,Baoro,CAF,15.952742400414078,5.695617806076142
10717.0,Topia,CAF,16.61700646961163,4.79176499223225
10731.0,Vange,CAF,17.997330278997413,4.884460230326742
9155.0,Zmio,CAF,25.131738611617312,5.027151896991912
2074.0,Bossembl,CAF,17.646075733578,5.265314775777553
10929.0,Ouandja-Kotto,CAF,23.250772702714517,8.527284472714605
10940.0,Buhong,CAF,15.64986361256561,6.494145944596631
3614.0,Grimari,CAF,20.053393023889985,5.7423112107102465
11036.0,Moyen-Sido,CAF,18.715353808337422,8.221722975391469
11054.0,Ouandja,CAF,21.613567315672768,9.782082452499903
11132.0,Obo,CAF,26.488788342664456,5.3880860367732835
11148.0,Haute-Batouri,CAF,15.798491063531074,4.66427199503485
11167.0,Pissa,CAF,18.193863612311166,4.05352689700182
11531.0,CAF 44,CAF,14.95300086753712,6.74172297540622
11895.0,Dimbi,CAF,21.72619694529117,4.621860230329382
12235.0,Mbaere,CAF,16.643937686540095,3.9318972673732238
12300.0,Bakala,CAF,16.93727101984419,5.383378748840333
17447.0,Ouadda,CAF,22.395101707129072,8.07057451600932
17448.0,Yobe-sangha,CAF,16.2594932421342,2.915230600716766
17449.0,Mbrebres,CAF,19.79504879733616,6.66856393401262
17450.0,Basse-Mambere,CAF,16.113567316222884,4.004489859964992
17451.0,Ouango,CAF,22.550419167431002,4.31541578588812
17452.0,Mbata,CAF,18.29453027896763,3.6839713414499977
17453.0,Damara,CAF,18.697641390038534,4.959489859955559
4740.0,Khartoum,SDN,32.52473965698574,15.59573848697002
6899.0,Nyala,SDN,24.87911740418042,12.05526613431417
907.0,al-Qadarif,SDN,35.377895262422626,14.038524918662517
4614.0,Kassala,SDN,36.37533431756362,15.436702654463586
7362.0,Port Sudan,SDN,37.194398389092186,19.609376942013306
8912.0,Wad Madani,SDN,33.5239306569514,14.380084771661302
1098.0,al-Ubayd,SDN,30.221602532110293,13.18719163679482
5006.0,Kosty,SDN,32.65771379813062,13.145459481180477
587.0,al-Duaiym,SDN,26.13008782676408,11.458836313968096
572.0,al-Damazin,SDN,34.352717384280034,11.819380670508881
606.0,al-Fashir,SDN,25.356382286718187,13.628031477596597
742.0,al-Junaynah,SDN,22.432880278553792,13.443043563574431
2852.0,Dongola,SDN,30.459715827833264,19.1612641710707
7870.0,Sennar,SDN,33.591200244434745,13.542401484365588
7456.0,Rabak,SDN,32.74628994314422,13.18910265448611
820.0,al-Manaqil,SDN,32.99431873903621,14.241975614848492
1072.0,al-Sururab Maghrabiyya,SDN,32.52473826268856,15.906215847672275
1354.0,Atbara,SDN,34.00043365903966,17.711024481406167
9118.0,Zalingey,SDN,23.48246967238838,12.91439558378188
8355.0,Tandalty 1,SDN,31.87167520514628,13.012468925897664
573.0,al-Damir,SDN,33.974718311587694,17.592569631909107
7966.0,Shendi,SDN,33.43551099370704,16.6825668417789
8213.0,Suakin,SDN,37.326116198389535,19.094197704304783
8732.0,Um Rowaba,SDN,31.214975655826894,12.90834762520449
8748.0,Umm Dawwanban,SDN,32.82794291691948,15.443670639143086
3718.0,Halfa' al-Jadida,SDN,35.60691944813318,15.322812852895835
4292.0,Kaduqli,SDN,29.722729853196473,11.00422328759034
8111.0,Singa,SDN,33.92924632678695,13.141823193207188
588.0,al-Duwaym,SDN,32.30156361090035,13.999993563568966
901.0,al-Nuhud,SDN,28.42154329878828,12.69015970941532
964.0,al-Roseires,SDN,34.393398964226456,11.85051679591372
1694.0,Barsi,SDN,33.54509798577589,14.44358418856452
1219.0,Anjakoaty,SDN,22.597354651297273,12.127297506239941
570.0,al-Dalanj,SDN,29.656711000723046,12.049478704150703
5451.0,Madinat Kabkabiyya,SDN,24.09297955375016,13.651744288210283
8670.0,Tulus,SDN,24.53627053808378,11.09252256792706
8084.0,Sifeay North,SDN,32.90260666639564,13.073054674689427
4586.0,Kas,SDN,24.288911230749168,12.50705803244838
97.0,Abu Jubayha,SDN,31.235069960213355,11.46714594454663
5687.0,Mansur Kawti,SDN,31.295817176506873,17.997563381107774
1007.0,al-Sanwa,SDN,32.28493403343718,15.59152689688641
9122.0,DIba Dunqula ,SDN,25.293140447759313,13.490651190692645
3396.0,Garsaila,SDN,23.140171304124117,12.385014076405763
684.0,al-Hasahisa,SDN,33.311849912169215,14.737120504200714
8915.0,Wad Sharifay,SDN,36.45343503905657,15.351884039745887
